address,province,city,district,latitude,count,longitude
云南省玉溪市红塔区北城街道大石板社区秧草塘村,云南省,玉溪市,红塔区,24.46442,2,102.51207
云南省玉溪市红塔区红塔大道50号华瑞小区,云南省,玉溪市,红塔区,24.34077,4,102.5463
云南省玉溪市红塔区玉景苑小区,云南省,玉溪市,红塔区,24.336069,1,102.5448
云南省保山市龙陵县镇安镇,云南省,保山市,龙陵县,24.695606,1,98.825541
云南省昆明市官渡区小板桥街道海伦国际小区,云南省,昆明市,官渡区,24.9666,1,102.745262
云南省昆明市官渡区矣六街道星体花园北区13栋1单元,云南省,昆明市,官渡区,24.94033,-1,102.76237
云南省昆明市官渡区昆船花园小区13栋2单元,云南省,昆明市,官渡区,24.98933,-1,102.796402
云南省昆明市官渡区太和街道都市坐标小区B栋7单元,云南省,昆明市,官渡区,25.018049,1,102.729591
云南省昆明市盘龙区金殿武家村,云南省,昆明市,盘龙区,25.11624,1,102.75205
云南省昆明市盘龙区联盟街道云锡花园2区西区1栋2单元,云南省,昆明市,盘龙区,25.073754,-1,102.736771
云南省昆明市东川区乌龙镇黄包谷地小组,云南省,昆明市,东川区,25.975559,-1,103.079323
云南省昆明市五华区红云街道江东耀龙康城8栋3单元,云南省,昆明市,五华区,25.098301,-1,102.730247
云南省昆明市五华区丰宁街道春晖小区颐达园3栋,云南省,昆明市,五华区,25.050993,-1,102.676552
云南省昆明市寻甸县塘子街道办事处小瓦匠村,云南省,昆明市,寻甸县,25.476999,-1,103.28363
云南省昆明市西山区永昌街道绿地大城天地4B商业22-5栋,云南省,昆明市,西山区,25.013399,-1,102.701859
云南省昆明市安宁市金方街道恒大金碧天下博雅苑25栋1单元,云南省,昆明市,安宁市,24.889889,-1,102.562363
云南省德宏傣族景颇族自治州瑞丽市五缘玉城小区,云南省,德宏傣族景颇族自治州,瑞丽市,24.024139,1,97.84623
云南省西双版纳傣族自治州景洪市 景洪农场三分场,云南省,西双版纳傣族自治州,景洪市,21.985604,1,100.753408
云南省西双版纳傣族自治州景洪市曼哈乡曼伞囡村,云南省,西双版纳傣族自治州,景洪市,21.837132,1,100.93062
吉林省吉林市丰满区中海紫御江城,吉林省,吉林市,丰满区,43.83226,1,126.567146
吉林省吉林市昌邑区吉炭小区,吉林省,吉林市,昌邑区,43.87487,1,126.581863
吉林省长春市净月区万科城,吉林省,长春市,净月区,43.799,3,125.386841
吉林省长春市净月区博学路东城国际花园小区,吉林省,长春市,净月区,43.819729,1,125.414871
吉林省长春市净月区净月街道财苑家园,吉林省,长春市,净月区,43.82782,2,125.446503
吉林省长春市朝阳区崇智路694号,吉林省,长春市,朝阳区,43.89262,5,125.31404
吉林省长春市绿园区西城国际公馆,吉林省,长春市,绿园区,43.898201,1,125.268951
吉林省长春市绿园区长客花园,吉林省,长春市,绿园区,43.909149,1,125.289803
吉林省长春市高新区中海兰庭小区,吉林省,长春市,高新区,43.783199,1,125.259201
吉林省长春市高新区北湾新城,吉林省,长春市,高新区,43.969044,1,125.391365
吉林省长春市高新区恒大绿洲,吉林省,长春市,高新区,43.774448,5,125.259071
吉林省长春市高新区飞跃经典小区,吉林省,长春市,高新区,43.832779,1,125.241211
吉林省长春市高新区吉大南校家属楼,吉林省,长春市,高新区,43.829893,1,125.278054
吉林省长春市九台区龙凤二期,吉林省,长春市,九台区,44.224972,1,125.686569
吉林省长春市九台区工商一条街铁路家属楼,吉林省,长春市,九台区,44.150131,1,125.83828
吉林省长春市二道区力旺康城小区,吉林省,长春市,二道区,43.945663,1,125.370705
吉林省长春市二道区天富北苑,吉林省,长春市,二道区,43.90736,1,125.37458
吉林省长春市宽城区北十条荣旺天下,吉林省,长春市,宽城区,43.917198,1,125.35038
吉林省长春市宽城区金都小镇,吉林省,长春市,宽城区,43.965321,1,125.286697
吉林省长春市经开区首地首城,吉林省,长春市,经开区,43.840981,3,125.411354
吉林省长春市经开区像素公园,吉林省,长春市,经开区,43.849023,1,125.412182
吉林省长春市南关区东岭南街达顺小区,吉林省,长春市,南关区,43.85519,2,125.352364
吉林省四平市公主岭市十屋镇双河村1组,吉林省,四平市,公主岭市,43.821548,1,124.24987
吉林省四平市公主岭市怀德镇三合堡村8组,吉林省,四平市,公主岭市,43.815208,2,124.706909
吉林省四平市公主岭市秦家屯镇南平村5队,吉林省,四平市,公主岭市,43.785648,1,124.657082
天津市宁河区芦台镇王北村,天津市,天津市,宁河区,39.358971,1,117.771988
天津市宁河区芦台镇运河家园,天津市,天津市,宁河区,39.351799,3,117.802422
天津市宝坻区宝平街道华苑东区,天津市,天津市,宝坻区,39.709171,1,117.30587
天津市宝坻区宝平街道宝平景苑东区,天津市,天津市,宝坻区,39.70789,1,117.295311
天津市宝坻区宝平街道宝平景苑西区,天津市,天津市,宝坻区,39.70902,1,117.29137
天津市宝坻区宝平街道河景馨园小区,天津市,天津市,宝坻区,39.702579,3,117.289268
天津市宝坻区朝霞街道开元新居小区,天津市,天津市,宝坻区,39.733511,1,117.299005
天津市宝坻区海滨街道宝鑫景苑小区,天津市,天津市,宝坻区,39.73172,2,117.321983
天津市宝坻区海滨街道御景华城小区,天津市,天津市,宝坻区,39.738712,2,117.350296
天津市宝坻区牛道口镇焦山寺村,天津市,天津市,宝坻区,39.779079,1,117.290787
天津市宝坻区钰华街道凯瑞国际小区,天津市,天津市,宝坻区,39.722679,2,117.336433
天津市宝坻区大口屯镇古庄村,天津市,天津市,宝坻区,39.592751,1,117.258926
天津市宝坻区大钟庄镇大钟庄村,天津市,天津市,宝坻区,39.687401,2,117.577377
天津市宝坻区口东镇前齐各庄村,天津市,天津市,宝坻区,39.669762,4,117.405441
天津市宝坻区宝平街道瑞景花园小区,天津市,天津市,宝坻区,39.72253,1,117.311768
天津市宝坻区朝霞街道状元城小区,天津市,天津市,宝坻区,39.735738,1,117.287721
天津市宝坻区林亭口镇窝贝厂村,天津市,天津市,宝坻区,39.603519,1,117.533508
天津市宝坻区钰华街道金玉四园小区,天津市,天津市,宝坻区,39.71131,1,117.319656
天津市宝坻区宝平街道宝境檀香小区,天津市,天津市,宝坻区,39.6931,1,117.276573
天津市宝坻区牛道口镇沟头村,天津市,天津市,宝坻区,39.814442,1,117.207428
天津市宝坻区宝平街道凯旋家园小区,天津市,天津市,宝坻区,39.695438,2,117.297768
天津市宝坻区宝平街道蝶恋新园小区,天津市,天津市,宝坻区,39.712849,1,117.284096
天津市宝坻区钰华街道顺驰小区,天津市,天津市,宝坻区,39.715565,1,117.330261
天津市宝坻区史各庄镇陈甫村,天津市,天津市,宝坻区,39.730458,1,117.244398
天津市宝坻区宝平街道逸城雅园小区,天津市,天津市,宝坻区,39.70504,1,117.30162
天津市宝坻区海滨街道蓝水湾小区,天津市,天津市,宝坻区,39.739964,1,117.299263
天津市宝坻区林亭口镇林亭口五村,天津市,天津市,宝坻区,39.636753,3,117.517996
天津市宝坻区牛道口镇西四庄村,天津市,天津市,宝坻区,39.827007,1,117.248001
天津市宝坻区大钟庄镇大中庄村,天津市,天津市,宝坻区,39.689512,1,117.574626
天津市宝坻区海滨街道和远领居小区,天津市,天津市,宝坻区,39.731892,1,117.342461
天津市宝坻区钰华街道,天津市,天津市,宝坻区,39.699261,1,117.309227
天津市宝坻区史各庄镇西马各庄村,天津市,天津市,宝坻区,39.73613,1,117.212631
天津市宝坻区宝平街道提香轩小区,天津市,天津市,宝坻区,39.69595,1,117.307243
天津市宝坻区林亭口镇,天津市,天津市,宝坻区,39.635068,1,117.515189
天津市宝坻区林亭口镇林亭口一村,天津市,天津市,宝坻区,39.64529,1,117.49112
天津市滨海新区中新生态城,天津市,天津市,滨海新区,39.116772,1,117.737556
天津市滨海新区万通上北新新家园,天津市,天津市,滨海新区,39.06181,1,117.64769
天津市东丽区揽湖苑别墅,天津市,天津市,东丽区,39.178452,3,117.499031
天津市东丽区华明街道坤园,天津市,天津市,东丽区,39.178581,1,117.379646
天津市西青区杨柳青镇,天津市,天津市,西青区,39.128487,2,117.014046
天津市西青区中北镇溪秀苑小区,天津市,天津市,西青区,39.124432,1,117.093208
天津市津南区双港镇,天津市,天津市,津南区,39.04274,1,117.318703
天津市北辰区普东街强宜里小区,天津市,天津市,北辰区,39.190418,1,117.204941
天津市北辰区双口镇双河村,天津市,天津市,北辰区,39.154682,1,117.017047
天津市北辰区果园新村街,天津市,天津市,北辰区,39.221064,1,117.13822
天津市北辰区瑞景街熙景园小区,天津市,天津市,北辰区,39.208321,1,117.118202
天津市北辰区双口镇,天津市,天津市,北辰区,39.227777,1,117.036548
天津市北辰区瑞景街,天津市,天津市,北辰区,39.1956,1,117.106363
天津市河东区大直沽汇贤里,天津市,天津市,河东区,39.11757,3,117.245313
天津市河东区大王庄街林盛里,天津市,天津市,河东区,39.118836,1,117.238973
天津市河北区望海楼街,天津市,天津市,河北区,39.160986,1,117.207724
天津市河北区望海楼街金庭里小区,天津市,天津市,河北区,39.149685,2,117.19928
天津市南开区王顶堤街金冠里社区,天津市,天津市,南开区,39.098019,1,117.139778
天津市南开区王顶堤街凤园南里社区,天津市,天津市,南开区,39.086243,2,117.148049
天津市武清区汊沽港,天津市,天津市,武清区,39.259186,1,116.930538
安徽省滁州市琅琊区清流街道泰鑫现代城东区,安徽省,滁州市,琅琊区,32.29985,1,118.317131
安徽省滁州市凤阳县官塘镇,安徽省,滁州市,凤阳县,32.68367,7,117.219681
安徽省滁州市天长市天长街道,安徽省,滁州市,天长市,32.679459,2,119.012642
安徽省滁州市天长市汊涧镇,安徽省,滁州市,天长市,32.666061,1,118.775574
安徽省滁州市明光市古沛镇,安徽省,滁州市,明光市,32.990391,1,118.004349
安徽省马鞍山市和县功桥镇,安徽省,马鞍山市,和县,31.571051,2,118.19442
安徽省马鞍山市和县白桥镇,安徽省,马鞍山市,和县,31.528959,10,118.308609
安徽省马鞍山市和县西埠镇,安徽省,马鞍山市,和县,31.76877,1,118.291496
安徽省马鞍山市和县香泉镇,安徽省,马鞍山市,和县,31.87038,1,118.325851
安徽省马鞍山市和县历阳镇清佛村,安徽省,马鞍山市,和县,31.660629,1,118.310677
安徽省马鞍山市历阳镇清佛村,安徽省,马鞍山市,和县,31.660554,1,118.310634
安徽省马鞍山市和县西埠镇范桥村,安徽省,马鞍山市,和县,31.727751,1,118.261584
安徽省马鞍山市当涂县黄池镇,安徽省,马鞍山市,当涂县,31.307631,1,118.606033
安徽省马鞍山市雨山区泰和天成,安徽省,马鞍山市,雨山区,31.655371,3,118.512253
安徽省马鞍山市雨山区红旗花园,安徽省,马鞍山市,雨山区,31.696871,3,118.494743
安徽省马鞍山市雨山区阳光城,安徽省,马鞍山市,雨山区,31.662146,1,118.593468
安徽省马鞍山市花山区同济花园,安徽省,马鞍山市,花山区,31.706181,1,118.515831
安徽省亳州市利辛县城关镇五一路,安徽省,亳州市,利辛县,33.141781,-1,116.207062
安徽省亳州市利辛县城关镇文物所家属院,安徽省,亳州市,利辛县,33.144983,1,116.208334
安徽省亳州市利辛县城关镇港口新村老供销社家属院,安徽省,亳州市,利辛县,33.139309,1,116.201637
安徽省亳州市利辛县城关镇顺河村姚庄,安徽省,亳州市,利辛县,33.132344,-1,116.138678
安徽省亳州市利辛县城关镇黄桥社区,安徽省,亳州市,利辛县,33.149441,-1,116.200844
安徽省亳州市利辛县潘楼镇张大庄村张大庄,安徽省,亳州市,利辛县,33.25433,-1,116.32135
安徽省亳州市利辛县王市镇刘沈村刘寨,安徽省,亳州市,利辛县,33.137622,-1,116.097873
安徽省亳州市利辛县纪王场乡纪竹园庄,安徽省,亳州市,利辛县,33.341079,-1,116.131112
安徽省亳州市利辛县胡集镇李圩村腰西庄,安徽省,亳州市,利辛县,32.956466,-1,116.240559
安徽省亳州市利辛县西潘楼镇张集村东刘,安徽省,亳州市,利辛县,33.214931,-1,116.129055
安徽省亳州市利辛县阚疃镇人民南路,安徽省,亳州市,利辛县,33.010126,-1,116.316764
安徽省亳州市利辛县城关镇金龙国际新城,安徽省,亳州市,利辛县,33.163021,1,116.212128
安徽省亳州市利辛县城关镇中央名城小区,安徽省,亳州市,利辛县,33.144428,1,116.199089
安徽省亳州市利辛县城关镇复兴社区利东东区,安徽省,亳州市,利辛县,33.122826,2,116.206863
安徽省亳州市利辛县城关镇春店社区胜利村,安徽省,亳州市,利辛县,33.156811,2,116.231678
安徽省亳州市利辛县城关镇前进路英伦华帝小区,安徽省,亳州市,利辛县,33.146528,2,116.181322
安徽省亳州市利辛县老二中对面黄寨社区,安徽省,亳州市,利辛县,33.275113,1,116.54902
安徽省亳州市利辛县西潘楼镇东潘楼村,安徽省,亳州市,利辛县,33.197868,1,116.140732
安徽省亳州市利辛县城关镇闫郢村董老寨,安徽省,亳州市,利辛县,33.176289,1,116.212502
安徽省亳州市利辛县胡集镇程刘村张庄,安徽省,亳州市,利辛县,33.025418,1,116.194923
安徽省亳州市利辛县城关镇富康村康洼树庄,安徽省,亳州市,利辛县,33.12735,2,116.276459
安徽省亳州市利辛县城关镇建设路南段金宝贝幼儿园附近,安徽省,亳州市,利辛县,33.131832,1,116.208076
安徽省亳州市利辛县城关镇董老寨村,安徽省,亳州市,利辛县,33.176289,1,116.212502
安徽省亳州市利辛县城关镇复兴社区,安徽省,亳州市,利辛县,33.130921,1,116.207111
安徽省亳州市利辛县城关镇春店社区春店3队,安徽省,亳州市,利辛县,33.153538,3,116.204025
安徽省亳州市利辛县西潘楼镇东潘楼村东潘楼,安徽省,亳州市,利辛县,33.198024,1,116.140152
安徽省亳州市利辛县城关镇前进社区立新巷,安徽省,亳州市,利辛县,33.141883,1,116.207069
安徽省亳州市利辛县城关镇房产局家属院,安徽省,亳州市,利辛县,33.149569,1,116.212252
安徽省亳州市利辛县城北镇建设路南段金宝贝幼儿园附近,安徽省,亳州市,利辛县,33.132956,1,116.210045
安徽省亳州市涡阳县城关镇街道北环中路,安徽省,亳州市,涡阳县,33.516613,-1,116.217339
安徽省亳州市涡阳县城关镇街道医苑新村,安徽省,亳州市,涡阳县,33.490322,-1,116.206589
安徽省亳州市涡阳县新兴镇付庄行政村付庄,安徽省,亳州市,涡阳县,33.654964,-1,116.406102
安徽省亳州市涡阳县新兴镇左楼付庄,安徽省,亳州市,涡阳县,33.654964,-1,116.406102
安徽省亳州市涡阳县星园街道桂语城栖,安徽省,亳州市,涡阳县,33.47234,-1,116.190903
安徽省亳州市涡阳县花沟镇孙小桥行政村李楼,安徽省,亳州市,涡阳县,33.499045,-1,116.127946
安徽省亳州市涡阳县马店集镇李庄行政村李庄,安徽省,亳州市,涡阳县,33.662309,-1,116.268859
安徽省亳州市涡阳县城关街道紫光大道与育英路交口向南,安徽省,亳州市,涡阳县,33.49568,2,116.20342
安徽省亳州市涡阳县城关镇乐行家园,安徽省,亳州市,涡阳县,33.506474,1,116.214256
安徽省亳州市涡阳县新兴镇付庄行政村,安徽省,亳州市,涡阳县,33.756773,1,116.280603
安徽省亳州市涡阳县花沟镇孙小桥行政村,安徽省,亳州市,涡阳县,33.493899,1,116.125285
安徽省亳州市涡阳县新兴镇左楼村,安徽省,亳州市,涡阳县,33.67923,1,116.238281
安徽省亳州市涡阳县新汽车站对面路北小区幸福港湾,安徽省,亳州市,涡阳县,33.494288,1,116.185939
安徽省亳州市涡阳县城关街道巨人印象小区,安徽省,亳州市,涡阳县,33.487793,5,116.196869
安徽省亳州市涡阳县新兴镇左楼行政村大围子自然村,安徽省,亳州市,涡阳县,33.6791,1,116.238275
安徽省亳州市涡阳县花沟镇狄马村,安徽省,亳州市,涡阳县,33.493679,1,116.098152
安徽省亳州市涡阳县巨人印象小区,安徽省,亳州市,涡阳县,33.489349,3,116.196632
安徽省亳州市蒙城县三义镇义兴街,安徽省,亳州市,蒙城县,33.099979,-1,116.475677
安徽省亳州市蒙城县乐土镇双桥村褚尹庄,安徽省,亳州市,蒙城县,33.07975,-1,116.616692
安徽省亳州市蒙城县乐土镇柳林街,安徽省,亳州市,蒙城县,33.107079,-1,116.65197
安徽省亳州市蒙城县城关街道金天地商业街,安徽省,亳州市,蒙城县,33.256069,-1,116.556511
安徽省亳州市蒙城县庄周街道玖隆国际C区,安徽省,亳州市,蒙城县,33.24014,-1,116.56064
安徽省亳州市蒙城县许疃镇赵集村东孙庄,安徽省,亳州市,蒙城县,33.401711,-1,116.785172
安徽省亳州市蒙城县许疃镇闫集村后钱庄,安徽省,亳州市,蒙城县,33.396513,-1,116.666949
安徽省亳州市蒙城县庄周街道桂堰小区,安徽省,亳州市,蒙城县,33.242199,1,116.594292
安徽省亳州市蒙城县楚村镇常兴社区前尹塘庄,安徽省,亳州市,蒙城县,32.955864,1,116.599678
安徽省亳州市谯城区亿丰御景小区,安徽省,亳州市,谯城区,33.838718,-1,115.786133
安徽省亳州市谯城区十八里镇候桥村赵老家,安徽省,亳州市,谯城区,33.78054,-1,115.627296
安徽省亳州市谯城区御花园小区,安徽省,亳州市,谯城区,33.857979,-1,115.76889
安徽省亳州市谯城区薛阁办事处白依路包园新村,安徽省,亳州市,谯城区,33.849411,-1,115.789839
安徽省亳州市谯城区颜集镇曹寺行政村东张庄,安徽省,亳州市,谯城区,33.95237,-1,115.995644
安徽省亳州市谯城区华佗镇程屯村,安徽省,亳州市,谯城区,33.930531,1,115.767792
安徽省亳州市谯城区华佗镇程屯村小王庄,安徽省,亳州市,谯城区,33.94286,1,115.721512
安徽省亳州市谯城区薛阁街道上善名郡上园,安徽省,亳州市,谯城区,33.867942,1,115.75871
安徽省亳州市高新区建投世纪城,安徽省,亳州市,高新区,33.80518,-1,115.761673
安徽省亳州市高新区翡翠庄园,安徽省,亳州市,高新区,33.81929,-1,115.767487
安徽省亳州市高新区豪泽丽景小区,安徽省,亳州市,高新区,33.82769,-1,115.771439
安徽省合肥市包河区宝利丰广场,安徽省,合肥市,包河区,31.83544,-1,117.286774
安徽省合肥市包河区曙宏南苑,安徽省,合肥市,包河区,31.82452,-1,117.275787
安徽省合肥市包河区滨湖明珠西区,安徽省,合肥市,包河区,31.73312,-1,117.28219
安徽省合肥市包河区琼林苑小区,安徽省,合肥市,包河区,31.748102,-1,117.289932
安徽省合肥市包河区豪门金地小区,安徽省,合肥市,包河区,31.706409,-1,117.280571
安徽省合肥市包河区金湾嘉园,安徽省,合肥市,包河区,31.85006,-1,117.306091
安徽省合肥市包河区兴丰苑小区,安徽省,合肥市,包河区,31.850479,-1,117.293159
安徽省合肥市巢湖市凤凰山街道城市之光C区,安徽省,合肥市,巢湖市,31.61656,-1,117.87793
安徽省合肥市巢湖市槐林镇武山居委会,安徽省,合肥市,巢湖市,31.428776,-1,117.610226
安徽省合肥市庐江县冶父山镇冶父山社区,安徽省,合肥市,庐江县,31.269855,-1,117.333885
安徽省合肥市庐江县同大镇施丰村,安徽省,合肥市,庐江县,31.476749,-1,117.29203
安徽省合肥市庐江县庐城镇翠绿园,安徽省,合肥市,庐江县,31.257862,-1,117.294563
安徽省合肥市庐江县柯坦镇城池村,安徽省,合肥市,庐江县,31.189911,-1,117.185913
安徽省合肥市庐江县矾山镇新中村,安徽省,合肥市,庐江县,31.06563,-1,117.432388
安徽省合肥市庐江县罗河镇吉桥村,安徽省,合肥市,庐江县,31.06312,-1,117.237877
安徽省合肥市庐江县罗河镇鲍店村,安徽省,合肥市,庐江县,30.982321,-1,117.392632
安徽省合肥市庐江县金牛镇铺岗村,安徽省,合肥市,庐江县,31.376863,-1,117.169968
安徽省合肥市庐江县泥河镇八里村,安徽省,合肥市,庐江县,31.066971,-1,117.326378
安徽省合肥市庐阳区古城新村,安徽省,合肥市,庐阳区,31.875839,-1,117.25576
安徽省合肥市庐阳区探矿厂宿舍,安徽省,合肥市,庐阳区,31.905523,-1,117.286018
安徽省合肥市庐阳区杏林花园南区,安徽省,合肥市,庐阳区,31.89435,-1,117.2873
安徽省合肥市庐阳区柏景湾青云轩,安徽省,合肥市,庐阳区,31.877001,-1,117.271576
安徽省合肥市庐阳区海亮红玺台小区,安徽省,合肥市,庐阳区,31.89242,-1,117.266151
安徽省合肥市庐阳区海棠别院,安徽省,合肥市,庐阳区,31.893364,-1,117.268982
安徽省合肥市庐阳区四泉花园南区,安徽省,合肥市,庐阳区,31.885321,-1,117.253517
安徽省合肥市庐阳区土产日杂公司宿舍,安徽省,合肥市,庐阳区,31.875229,-1,117.290656
安徽省合肥市庐阳区公园西村,安徽省,合肥市,庐阳区,31.867987,-1,117.285066
安徽省合肥市新站区合郢花园,安徽省,合肥市,新站区,31.90399,-1,117.373077
安徽省合肥市新站区园上园公寓楼,安徽省,合肥市,新站区,31.887011,-1,117.358513
安徽省合肥市新站区家天下3期,安徽省,合肥市,新站区,31.893736,-1,117.324829
安徽省合肥市新站区新海尚宸家园,安徽省,合肥市,新站区,31.898899,-1,117.342247
安徽省合肥市新站区昊天园小区,安徽省,合肥市,新站区,31.933254,-1,117.423203
安徽省合肥市新站区京商商贸城,安徽省,合肥市,新站区,31.928022,-1,117.343521
安徽省合肥市新站区张洼新村,安徽省,合肥市,新站区,31.905239,-1,117.319672
安徽省合肥市新站区金辉悦府小区,安徽省,合肥市,新站区,31.91856,-1,117.324478
安徽省合肥市新站区瑶海佳苑（兴华苑三期）,安徽省,合肥市,新站区,31.9044,-1,117.322212
安徽省合肥市瑶海区临泉花苑小区,安徽省,合肥市,瑶海区,31.88673,-1,117.304039
安徽省合肥市瑶海区元一名城,安徽省,合肥市,瑶海区,31.890617,-1,117.292686
安徽省合肥市瑶海区凤翔家园,安徽省,合肥市,瑶海区,31.87384,-1,117.321709
安徽省合肥市瑶海区华都城市花园,安徽省,合肥市,瑶海区,31.86614,-1,117.376839
安徽省合肥市瑶海区怡馨苑,安徽省,合肥市,瑶海区,31.882,-1,117.30117
安徽省合肥市瑶海区恒丰嘉园,安徽省,合肥市,瑶海区,31.868891,-1,117.324287
安徽省合肥市瑶海区恒大中央广场,安徽省,合肥市,瑶海区,31.875879,-1,117.298576
安徽省合肥市瑶海区斯瑞新景苑,安徽省,合肥市,瑶海区,31.874729,-1,117.367607
安徽省合肥市瑶海区新创益民家园,安徽省,合肥市,瑶海区,31.86816,-1,117.387802
安徽省合肥市瑶海区温莎国际广场,安徽省,合肥市,瑶海区,31.874451,-1,117.309425
安徽省合肥市瑶海区铜陵路工业锅炉厂宿舍,安徽省,合肥市,瑶海区,31.869989,-1,117.32357
安徽省合肥市瑶海区长江东路五里井17栋,安徽省,合肥市,瑶海区,31.867077,-1,117.328751
安徽省合肥市瑶海区芳邻家园,安徽省,合肥市,瑶海区,31.873131,-1,117.333656
安徽省合肥市瑶海区大兴镇合浦新村（恢复楼）,安徽省,合肥市,瑶海区,31.86565,-1,117.354279
安徽省合肥市瑶海区海洲景秀世家2期,安徽省,合肥市,瑶海区,31.88011,-1,117.36676
安徽省合肥市瑶海区马岗社区龙岗管委会宿舍楼,安徽省,合肥市,瑶海区,31.870702,-1,117.386772
安徽省合肥市瑶海区红星家园,安徽省,合肥市,瑶海区,31.882363,-1,117.308982
安徽省合肥市瑶海区香江世纪名城,安徽省,合肥市,瑶海区,31.875299,-1,117.335159
安徽省合肥市肥东县八斗镇王城社区,安徽省,合肥市,肥东县,32.139271,-1,117.67775
安徽省合肥市肥东县店埠镇光大居委会光大新村,安徽省,合肥市,肥东县,31.89065,-1,117.453407
安徽省合肥市肥东县店埠镇凯旋公馆,安徽省,合肥市,肥东县,31.889799,-1,117.448624
安徽省合肥市肥东县店埠镇和平社区汇景新城,安徽省,合肥市,肥东县,31.88685,-1,117.461853
安徽省合肥市肥东县店埠镇定光社区传桥组,安徽省,合肥市,肥东县,31.877176,-1,117.487596
安徽省合肥市肥东县店埠镇定光社区新农村小区,安徽省,合肥市,肥东县,31.877279,-1,117.487785
安徽省合肥市肥东县店埠镇新城社区新城家园,安徽省,合肥市,肥东县,31.86648,-1,117.452271
安徽省合肥市肥东县店埠镇镇南社区,安徽省,合肥市,肥东县,31.881382,-1,117.469696
安徽省合肥市肥东县店埠镇青春社区育红小学宿舍楼,安徽省,合肥市,肥东县,31.884501,-1,117.471291
安徽省合肥市肥东县牌坊回族满族乡民新村,安徽省,合肥市,肥东县,31.949791,-1,117.507352
安徽省合肥市肥东县石塘镇供销社宿舍,安徽省,合肥市,肥东县,31.93203,-1,117.6334
安徽省合肥市肥东县石塘镇新展社区,安徽省,合肥市,肥东县,31.881772,-1,117.597237
安徽省合肥市肥东县石塘镇龙城社区,安徽省,合肥市,肥东县,31.899361,-1,117.567917
安徽省合肥市肥东县陈大郢社区紫玉华府,安徽省,合肥市,肥东县,31.890209,-1,117.420578
安徽省合肥市肥东县马湖乡沙河村,安徽省,合肥市,肥东县,32.047058,-1,117.846298
安徽省合肥市肥东县马湖乡马湖社区,安徽省,合肥市,肥东县,32.06942,-1,117.844467
安徽省合肥市肥东县店埠镇星光嘉苑,安徽省,合肥市,肥东县,31.88942,-1,117.466843
安徽省合肥市肥东县店埠镇双桥新村,安徽省,合肥市,肥东县,31.862881,-1,117.50486
安徽省合肥市肥东县店埠镇桑园村,安徽省,合肥市,肥东县,31.87163,-1,117.585152
安徽省合肥市肥东县店埠镇沿河东路原卫生局宿舍康居苑小区,安徽省,合肥市,肥东县,31.862974,-1,117.468387
安徽省合肥市肥东县梁园镇俞庙村,安徽省,合肥市,肥东县,31.95878,-1,117.576347
安徽省合肥市肥西县上派镇华邦万派城,安徽省,合肥市,肥西县,31.727461,-1,117.164101
安徽省合肥市肥西县上派镇韩圩村,安徽省,合肥市,肥西县,31.68487,-1,117.195953
安徽省合肥市肥西县桃花镇东冠繁华逸城,安徽省,合肥市,肥西县,31.78264,-1,117.172684
安徽省合肥市肥西县桃花镇信地华地城,安徽省,合肥市,肥西县,31.78064,-1,117.1651
安徽省合肥市肥西县铭传乡墩塘村,安徽省,合肥市,肥西县,31.761841,-1,116.786743
安徽省合肥市肥西县山南镇光明村,安徽省,合肥市,肥西县,31.672239,-1,116.772598
安徽省合肥市肥西县上派镇名邦中央公馆,安徽省,合肥市,肥西县,31.705099,-1,117.159912
安徽省合肥市蜀山区中央美域A区,安徽省,合肥市,蜀山区,31.86734,-1,117.236572
安徽省合肥市蜀山区中铁青秀城,安徽省,合肥市,蜀山区,31.8717,-1,117.245049
安徽省合肥市蜀山区内森庄园,安徽省,合肥市,蜀山区,31.815748,-1,117.214027
安徽省合肥市蜀山区和谐家园（长丰南路）,安徽省,合肥市,蜀山区,31.81955,-1,117.246239
安徽省合肥市蜀山区天和园,安徽省,合肥市,蜀山区,31.80793,-1,117.21106
安徽省合肥市蜀山区当代花园,安徽省,合肥市,蜀山区,31.8298,-1,117.2239
安徽省合肥市蜀山区颐和阳光100小区,安徽省,合肥市,蜀山区,31.857639,-1,117.242233
安徽省合肥市蜀山区颐园世家,安徽省,合肥市,蜀山区,31.799419,-1,117.220543
安徽省合肥市蜀山区龙居山庄天龙居,安徽省,合肥市,蜀山区,31.864996,-1,117.241882
安徽省合肥市蜀山区岳西新村B区,安徽省,合肥市,蜀山区,31.85121,-1,117.224106
安徽省合肥市蜀山区通和易居北苑,安徽省,合肥市,蜀山区,31.84676,-1,117.24855
安徽省合肥市蜀山区家家景园3期,安徽省,合肥市,蜀山区,31.859018,-1,117.22957
安徽省合肥市蜀山区安徽电力公司黄山路生活区,安徽省,合肥市,蜀山区,31.842735,-1,117.265233
安徽省合肥市长丰县岗集镇玉成明珠苑,安徽省,合肥市,长丰县,31.946278,-1,117.191658
安徽省合肥市长丰县阿奎利亚城品,安徽省,合肥市,长丰县,31.95619,-1,117.259727
安徽省合肥市长丰县下塘镇顾圩村,安徽省,合肥市,长丰县,32.200266,-1,117.260156
安徽省合肥市长丰县北城世纪城一期颐徽苑,安徽省,合肥市,长丰县,32.005156,-1,117.244935
安徽省合肥市长丰县北城明珠小区,安徽省,合肥市,长丰县,31.970671,-1,117.260208
安徽省合肥市高新区岭湖墅,安徽省,合肥市,高新区,31.823151,-1,117.149162
安徽省芜湖市南陵县新世纪花园,安徽省,芜湖市,南陵县,30.91469,1,118.34079
安徽省芜湖市南陵县籍山镇东门大桥天禧楼小区,安徽省,芜湖市,南陵县,30.921285,1,118.346512
安徽省芜湖市弋江区中南街道江岸明珠,安徽省,芜湖市,弋江区,31.316469,1,118.370056
安徽省芜湖市弋江区南瑞街道江城国际瑞华苑,安徽省,芜湖市,弋江区,31.301571,1,118.394119
安徽省芜湖市弋江区江岸明珠小区,安徽省,芜湖市,弋江区,31.316469,1,118.370056
安徽省芜湖市无为市严桥镇响山中学,安徽省,芜湖市,无为市,31.443069,1,117.798828
安徽省芜湖市无为市无城镇凤河路金河小区,安徽省,芜湖市,无为市,31.30776,1,117.90554
安徽省芜湖市无为市无城镇府苑小区,安徽省,芜湖市,无为市,31.305161,4,117.899757
安徽省芜湖市无为市陡沟镇凤凰桥社区薛巷自然村,安徽省,芜湖市,无为市,31.404517,1,118.085966
安徽省芜湖市无为市陡沟镇陡沟社区健博花园小区,安徽省,芜湖市,无为市,31.356446,1,118.018349
安徽省芜湖市无为市洪巷镇青岗行政村陈一自然村,安徽省,芜湖市,无为市,31.096405,2,117.734048
安徽省芜湖市无为市高沟镇健全行政村东湖自然村,安徽省,芜湖市,无为市,31.125076,1,117.925491
安徽省芜湖市无为市开城镇羊山行政村羊场自然村,安徽省,芜湖市,无为市,31.316503,2,117.771267
安徽省芜湖市芜湖县红杨镇红杨树社区六桥自然村,安徽省,芜湖市,芜湖县,31.042194,1,118.547843
安徽省芜湖市镜湖区七更点社区华盛小区,安徽省,芜湖市,镜湖区,31.326241,1,118.363792
安徽省芜湖市镜湖区凯旋社区绿地伊顿公馆,安徽省,芜湖市,镜湖区,31.330208,3,118.411118
安徽省芜湖市镜湖区文化路社区白金湾小区,安徽省,芜湖市,镜湖区,31.33835,1,118.386787
安徽省芜湖市镜湖区海南渡社区绿地6号地块C区,安徽省,芜湖市,镜湖区,31.32761,1,118.415482
安徽省芜湖市鸠江区清水街道金都檀宫小区,安徽省,芜湖市,鸠江区,31.330521,1,118.471642
安徽省芜湖市鸠江区龙山街道西梁山危化品锚地,安徽省,芜湖市,鸠江区,31.497528,1,118.342355
安徽省芜湖市经开区奇瑞BOBO城H区,安徽省,芜湖市,经开区,31.46122,2,118.397308
安徽省六安市裕安区凯旋名门3号楼,安徽省,六安市,裕安区,31.735291,-1,116.473282
安徽省六安市裕安区华邦新华城,安徽省,六安市,裕安区,31.753592,-1,116.488112
安徽省六安市裕安区帝都豪园13栋,安徽省,六安市,裕安区,31.740378,-1,116.484831
安徽省六安市裕安区独山镇茶叶市场,安徽省,六安市,裕安区,31.610867,-1,116.229826
安徽省六安市裕安区狮子岗黄大路村,安徽省,六安市,裕安区,31.711725,-1,116.270926
安徽省六安市裕安区苏埠镇祝张路黄莲村岗桥组,安徽省,六安市,裕安区,31.631645,-1,116.385509
安徽省六安市裕安区西河口镇马林村,安徽省,六安市,裕安区,31.935265,-1,116.136929
安徽省六安市裕安区青山乡八字岗村汪冲组,安徽省,六安市,裕安区,31.564574,-1,116.470584
安徽省六安市裕安区西市街道帝都豪园小区,安徽省,六安市,裕安区,31.740459,2,116.485519
安徽省六安市金安区中市街道前进社区浙东商贸城D区,安徽省,六安市,金安区,31.74611,-1,116.49753
安徽省六安市金安区孙岗镇五十铺村士坤组,安徽省,六安市,金安区,31.596334,-1,116.621473
安徽省六安市金安区椿树镇龙穴村张大郢组,安徽省,六安市,金安区,31.702483,-1,116.658477
安徽省六安市金安区清水河街道刘园社区海心沙小区,安徽省,六安市,金安区,31.77944,-1,116.5069
安徽省六安市金安区椿树镇,安徽省,六安市,金安区,31.687599,1,116.721687
安徽省六安市金寨县关庙乡关庙村,安徽省,六安市,金寨县,31.49868,-1,115.498207
安徽省六安市金寨县南溪镇南溪村,安徽省,六安市,金寨县,31.515394,-1,115.640533
安徽省六安市金寨县吴家店镇街道,安徽省,六安市,金寨县,31.283199,-1,115.578339
安徽省六安市金寨县果子园乡姚冲村,安徽省,六安市,金寨县,31.34622,-1,115.645447
安徽省六安市金寨县梅山镇明逸城小区,安徽省,六安市,金寨县,31.719572,-1,115.930724
安徽省六安市金寨县梅山镇香港花园小区,安徽省,六安市,金寨县,31.7222,-1,115.940178
安徽省六安市金寨县汤汇镇豹迹岩村,安徽省,六安市,金寨县,31.64352,-1,115.581108
安徽省六安市金寨县铁冲乡街道,安徽省,六安市,金寨县,31.744007,-1,115.681234
安徽省六安市金寨县汤家汇镇,安徽省,六安市,金寨县,31.609301,10,115.587952
安徽省六安市金寨县关庙乡,安徽省,六安市,金寨县,31.500496,1,115.499396
安徽省六安市霍山县佛子岭镇通水灌村,安徽省,六安市,霍山县,31.3624,-1,116.306358
安徽省六安市霍山县衡山镇上元街社区,安徽省,六安市,霍山县,31.402969,-1,116.316299
安徽省六安市霍山县衡山镇南岳村,安徽省,六安市,霍山县,31.395321,-1,116.31189
安徽省六安市霍山县衡山镇南潭社区,安徽省,六安市,霍山县,31.40316,-1,116.328957
安徽省六安市霍山县衡山镇和顺花园D区,安徽省,六安市,霍山县,31.402969,-1,116.316299
安徽省六安市霍山县衡山镇文峰社区,安徽省,六安市,霍山县,31.397722,-1,116.339005
安徽省六安市霍山县衡山镇荷香社区,安徽省,六安市,霍山县,31.401733,-1,116.332268
安徽省六安市霍山县衡山镇衡山社区,安徽省,六安市,霍山县,31.39435,-1,116.33297
安徽省六安市霍山县衡山镇西大街社区,安徽省,六安市,霍山县,31.406321,-1,116.323128
安徽省六安市霍山县黑石渡镇新店河村,安徽省,六安市,霍山县,31.432659,-1,116.227768
安徽省六安市霍山县与儿街镇儿街社区,安徽省,六安市,霍山县,31.386,-1,116.44986
安徽省六安市霍山县与儿街镇山王河村,安徽省,六安市,霍山县,31.429562,-1,116.398468
安徽省六安市霍山县与儿街镇,安徽省,六安市,霍山县,31.38673,1,116.446907
安徽省六安市霍山县佛子岭镇,安徽省,六安市,霍山县,31.3601,2,116.25528
安徽省六安市霍山县经济开发区,安徽省,六安市,霍山县,31.424393,1,116.384804
安徽省六安市霍山县衡山镇,安徽省,六安市,霍山县,31.402969,5,116.316299
安徽省六安市霍邱县城关镇玉泉社区惠民小区,安徽省,六安市,霍邱县,32.338051,-1,116.280357
安徽省六安市霍邱县宋店乡留城寺村老庄组,安徽省,六安市,霍邱县,32.181019,-1,116.2192
安徽省六安市霍邱县开发区马圩村学田组,安徽省,六安市,霍邱县,32.07423,-1,116.02655
安徽省六安市霍邱县范桥镇刘庙村北下组,安徽省,六安市,霍邱县,32.447578,-1,116.029572
安徽省六安市霍邱县高塘镇新桥村岗头组,安徽省,六安市,霍邱县,32.384109,-1,116.064636
安徽省六安市霍邱县龙潭镇龙王庙村南楼组,安徽省,六安市,霍邱县,32.101681,-1,115.952332
安徽省六安市霍邱县龙潭镇,安徽省,六安市,霍邱县,32.193272,1,115.994057
安徽省安庆市太湖县小池镇中心村桥头组,安徽省,安庆市,太湖县,30.513041,2,116.429749
安徽省安庆市太湖县新仓镇金鸡村蔡榜组,安徽省,安庆市,太湖县,30.429075,-1,116.390705
安徽省安庆市太湖县晋熙镇天高财富广场,安徽省,安庆市,太湖县,30.449649,-1,116.293952
安徽省安庆市宜秀区大龙山镇百华村何洼组,安徽省,安庆市,宜秀区,30.626396,-1,117.008152
安徽省安庆市宜秀区白泽湖乡大枫村大塘组,安徽省,安庆市,宜秀区,30.612429,-1,117.125908
安徽省安庆市宿松县佐坝乡环湖村桂咀组,安徽省,安庆市,宿松县,29.999941,-1,116.103888
安徽省安庆市宿松县佐坝乡碧岭村徐岭组,安徽省,安庆市,宿松县,30.110281,-1,116.104149
安徽省安庆市宿松县北浴乡马厂村曹湾组,安徽省,安庆市,宿松县,30.380562,-1,115.95224
安徽省安庆市宿松县复兴镇套口村五社组,安徽省,安庆市,宿松县,29.906719,-1,116.536499
安徽省安庆市宿松县孚玉镇光明社区棉麻新居小区,安徽省,安庆市,宿松县,30.164869,-1,116.117973
安徽省安庆市宿松县汇口镇团结村新埂组,安徽省,安庆市,宿松县,29.864571,-1,116.269852
安徽省安庆市宿松县破凉镇雪镇村阳田组,安徽省,安庆市,宿松县,30.226471,-1,116.170883
安徽省安庆市宿松县长铺镇马塘村余西组,安徽省,安庆市,宿松县,30.179251,-1,116.184357
安徽省安庆市宿松县孚玉镇梨园新村小区,安徽省,安庆市,宿松县,30.153099,1,116.126556
安徽省安庆市岳西县冶溪镇琥珀村琥珀组,安徽省,安庆市,岳西县,30.739679,-1,115.911377
安徽省安庆市岳西县古坊乡下坊村宁畈组,安徽省,安庆市,岳西县,30.87841,-1,115.944267
安徽省安庆市岳西县天堂镇城东社区小城宝邸小区,安徽省,安庆市,岳西县,30.85018,-1,116.37159
安徽省安庆市岳西县天堂镇阳光小区,安徽省,安庆市,岳西县,30.84519,-1,116.369392
安徽省安庆市岳西县店前镇店前村李屋组,安徽省,安庆市,岳西县,30.726853,-1,116.017989
安徽省安庆市岳西县河图镇皖源村河湾组,安徽省,安庆市,岳西县,30.91498,-1,115.988853
安徽省安庆市岳西县白帽镇余河村粮油组,安徽省,安庆市,岳西县,30.811904,-1,115.913881
安徽省安庆市怀宁县凉亭乡双湖村庙兴组,安徽省,安庆市,怀宁县,30.733,-1,116.940315
安徽省安庆市怀宁县凉亭乡双湖村珠林组,安徽省,安庆市,怀宁县,30.732938,-1,116.940339
安徽省安庆市怀宁县马庙镇鹿苑村双桂组,安徽省,安庆市,怀宁县,30.737736,-1,116.729433
安徽省安庆市怀宁县黄墩镇高楼村团结组,安徽省,安庆市,怀宁县,30.61282,-1,116.774071
安徽省安庆市怀宁县高河镇黄梅阁小区,安徽省,安庆市,怀宁县,30.734455,1,116.841476
安徽省安庆市怀宁县石牌镇广丰村新建组,安徽省,安庆市,怀宁县,30.403151,4,116.70359
安徽省安庆市怀宁县平山镇鸣凤村胜天组,安徽省,安庆市,怀宁县,30.4627,1,116.652206
安徽省安庆市怀宁县石牌镇广丰村中心组,安徽省,安庆市,怀宁县,30.403151,3,116.70359
安徽省安庆市望江县华阳镇计渡村石闸三组,安徽省,安庆市,望江县,30.086632,-1,116.714848
安徽省安庆市望江县赛口镇兴龙村,安徽省,安庆市,望江县,30.351545,-1,116.787109
安徽省安庆市望江县长岭镇后埠村同东屋,安徽省,安庆市,望江县,30.252064,-1,116.562373
安徽省安庆市望江县雷池乡沟口村先进组,安徽省,安庆市,望江县,30.292819,1,116.911157
安徽省安庆市桐城市双港镇双港镇民畈村新民组,安徽省,安庆市,桐城市,30.797812,-1,116.913445
安徽省安庆市桐城市双港镇潘赛村西瓜组,安徽省,安庆市,桐城市,30.80192,-1,116.998283
安徽省安庆市桐城市文昌街道公园社区粮食局宿舍,安徽省,安庆市,桐城市,31.054087,-1,116.952034
安徽省安庆市桐城市文昌街道石河村大隔组,安徽省,安庆市,桐城市,31.030359,-1,116.946793
安徽省安庆市桐城市新渡镇双墩村合胜组,安徽省,安庆市,桐城市,30.817221,-1,116.845917
安徽省安庆市桐城市新渡镇罗潭村罗潭组,安徽省,安庆市,桐城市,30.849789,-1,116.889099
安徽省安庆市桐城市范岗镇棋盘岭村张老屋队,安徽省,安庆市,桐城市,30.933427,-1,116.916796
安徽省安庆市桐城市龙眠街道碧桂园小区,安徽省,安庆市,桐城市,31.06056,-1,116.972771
安徽省安庆市桐城市龙眠街道长生社区三隔组,安徽省,安庆市,桐城市,31.06056,-1,116.972771
安徽省安庆市桐城市龙眠街道阅城国际小区,安徽省,安庆市,桐城市,31.044289,-1,116.965897
安徽省安庆市桐城市龙眠街道黄燕村横排组,安徽省,安庆市,桐城市,31.104891,-1,116.888329
安徽省安庆市桐城市双港镇民畈村新民组,安徽省,安庆市,桐城市,30.797798,1,116.913445
安徽省安庆市桐城市新渡镇永久村程西组,安徽省,安庆市,桐城市,30.92424,1,116.892921
安徽省安庆市桐城市银杏花园小区,安徽省,安庆市,桐城市,30.819349,1,116.943764
安徽省安庆市潜山市梅城镇水岸江南B区,安徽省,安庆市,潜山市,30.636589,-1,116.584976
安徽省安庆市潜山市源潭镇田墩新村,安徽省,安庆市,潜山市,30.89422,-1,116.680588
安徽省安庆市经开区菱北街道菱建小区,安徽省,安庆市,经开区,30.53948,-1,117.066719
安徽省安庆市经开区菱北街道香樟里小区,安徽省,安庆市,经开区,30.53582,-1,117.060242
安徽省安庆市经开区景湖嘉苑小区,安徽省,安庆市,经开区,30.53089,2,117.073341
安徽省安庆市迎江区华中路街道御景国际小区,安徽省,安庆市,迎江区,30.51236,-1,117.053482
安徽省安庆市迎江区滨江街道碧桂园1号公园小区,安徽省,安庆市,迎江区,30.507849,-1,117.043861
安徽省安庆市迎江区碧桂园1号公园小区,安徽省,安庆市,迎江区,30.507849,1,117.043861
安徽省安庆市大观区关岳庙街二监宿舍小区,安徽省,安庆市,大观区,30.511669,2,117.03791
安徽省蚌埠市淮上区吴小街镇通城紫都10栋,安徽省,蚌埠市,淮上区,32.96909,1,117.394226
安徽省蚌埠市淮上区小蚌埠镇外滩花园20栋,安徽省,蚌埠市,淮上区,32.967941,1,117.365273
安徽省蚌埠市淮上区小蚌埠镇荷花园小区一期A5号楼,安徽省,蚌埠市,淮上区,32.97194,1,117.37923
安徽省蚌埠市淮上区梅桥镇淝南村,安徽省,蚌埠市,淮上区,33.033421,2,117.299858
安徽省蚌埠市淮上区淮滨街道上河时代北区,安徽省,蚌埠市,淮上区,32.969009,1,117.366173
安徽省蚌埠市淮上区淮滨街道上河时代北区20栋,安徽省,蚌埠市,淮上区,32.96957,1,117.365227
安徽省蚌埠市淮上区小蚌埠镇荷花园1期12栋,安徽省,蚌埠市,淮上区,32.970314,1,117.376045
安徽省蚌埠市淮上区小蚌埠镇荷花园1期A5栋,安徽省,蚌埠市,淮上区,32.970314,1,117.376045
安徽省蚌埠市禹会区张公山街道张公山二村对面郊区机关宿舍楼,安徽省,蚌埠市,禹会区,32.925079,1,117.331947
安徽省蚌埠市禹会区张公山街道张公山北门制钉厂,安徽省,蚌埠市,禹会区,32.92477,1,117.340236
安徽省蚌埠市禹会区纬四街道胜利公寓2栋,安徽省,蚌埠市,禹会区,32.938129,1,117.348953
安徽省蚌埠市禹会区钓鱼台街道锦绣香堤B区13栋,安徽省,蚌埠市,禹会区,32.91294,2,117.34844
安徽省蚌埠市禹会区钓鱼台街道喜盈门二期,安徽省,蚌埠市,禹会区,32.913181,1,117.348862
安徽省蚌埠市禹会区张公山派出所旁,安徽省,蚌埠市,禹会区,32.926412,1,117.333035
安徽省蚌埠市禹会区张公山街道张公山4村419栋,安徽省,蚌埠市,禹会区,32.921941,2,117.328713
安徽省蚌埠市禹会区张公山街道张公山六村613栋,安徽省,蚌埠市,禹会区,32.922749,3,117.334274
安徽省蚌埠市禹会区朝阳街道怡康新都1栋,安徽省,蚌埠市,禹会区,32.928459,1,117.348862
安徽省蚌埠市禹会区马城镇胡圩村,安徽省,蚌埠市,禹会区,32.864189,2,117.210197
安徽省蚌埠市禹会区纬四街道新船塘小区3栋,安徽省,蚌埠市,禹会区,32.941181,1,117.349411
安徽省蚌埠市禹会区张公山街道丰原小区3栋,安徽省,蚌埠市,禹会区,32.925974,1,117.340755
安徽省蚌埠市禹会区钓鱼台街道车苑小区67栋,安徽省,蚌埠市,禹会区,32.904968,1,117.33976
安徽省蚌埠市禹会区纬四街道天地人花园1栋,安徽省,蚌埠市,禹会区,32.938345,1,117.343478
安徽省蚌埠市禹会区钓鱼台街道车苑小区6栋,安徽省,蚌埠市,禹会区,32.904968,1,117.33976
安徽省蚌埠市蚌山区宏业村街道万达广场C区3号楼,安徽省,蚌埠市,蚌山区,32.919636,1,117.359962
安徽省蚌埠市蚌山区青年街道同乐园小区8号楼,安徽省,蚌埠市,蚌山区,32.942032,1,117.362511
安徽省蚌埠市蚌山区青年街道大舞台小区1栋,安徽省,蚌埠市,蚌山区,32.94009,1,117.360939
安徽省蚌埠市蚌山区黄庄街道新天地小区,安徽省,蚌埠市,蚌山区,32.934551,1,117.358551
安徽省蚌埠市蚌山区黄庄街道水游城B区7栋,安徽省,蚌埠市,蚌山区,32.9219,1,117.355042
安徽省蚌埠市蚌山区青年街道华利街9栋,安徽省,蚌埠市,蚌山区,32.944221,1,117.365189
安徽省蚌埠市蚌山区黄庄街道丰泽园小区4栋,安徽省,蚌埠市,蚌山区,32.929668,2,117.357536
安徽省蚌埠市蚌山区青年街道中平街62栋,安徽省,蚌埠市,蚌山区,32.940278,1,117.36178
安徽省蚌埠市蚌山区纬二街道太平街296号,安徽省,蚌埠市,蚌山区,32.93971,1,117.358452
安徽省蚌埠市龙子湖区东升街道东方新天地小区18栋,安徽省,蚌埠市,龙子湖区,32.948978,1,117.384521
安徽省蚌埠市龙子湖区延安街道隆华小区2栋,安徽省,蚌埠市,龙子湖区,32.940353,1,117.373947
安徽省蚌埠市龙子湖区治淮街道长淮路270号水科新楼,安徽省,蚌埠市,龙子湖区,32.951801,1,117.376091
安徽省蚌埠市龙子湖区解放街道广厦小区2栋,安徽省,蚌埠市,龙子湖区,32.947708,2,117.389587
安徽省蚌埠市龙子湖区东升街道东方新天地,安徽省,蚌埠市,龙子湖区,32.948978,1,117.384521
安徽省蚌埠市龙子湖区东升街道交通路186号,安徽省,蚌埠市,龙子湖区,32.9488,1,117.3777
安徽省蚌埠市龙子湖区延安街道中铁都市家园,安徽省,蚌埠市,龙子湖区,32.94083,1,117.386421
安徽省蚌埠市龙子湖区延安街道延安一村,安徽省,蚌埠市,龙子湖区,32.949169,1,117.371269
安徽省蚌埠市龙子湖区治淮街道东苑小区,安徽省,蚌埠市,龙子湖区,32.9459,1,117.371567
安徽省蚌埠市龙子湖区治淮街道延安三区,安徽省,蚌埠市,龙子湖区,32.948799,1,117.374878
安徽省蚌埠市龙子湖区治淮街道淮河路854号,安徽省,蚌埠市,龙子湖区,32.94468,1,117.3741
安徽省蚌埠市龙子湖区解放街道广厦小区,安徽省,蚌埠市,龙子湖区,32.947708,2,117.389587
安徽省蚌埠市龙子湖区解放街道金润名都,安徽省,蚌埠市,龙子湖区,32.94854,2,117.392487
安徽省蚌埠市龙子湖区东升街道凤阳东路480号东单元,安徽省,蚌埠市,龙子湖区,32.945126,2,117.385047
安徽省蚌埠市龙子湖区东风街道淮河路854号2单元,安徽省,蚌埠市,龙子湖区,32.94468,1,117.3741
安徽省蚌埠市龙子湖区解放街道金润名都7栋,安徽省,蚌埠市,龙子湖区,32.94854,1,117.392487
安徽省蚌埠市龙子湖区东升街道华阳淮畔小区7栋,安徽省,蚌埠市,龙子湖区,32.955963,1,117.383093
安徽省蚌埠市龙子湖区治淮街道延安一村2栋,安徽省,蚌埠市,龙子湖区,32.949157,1,117.372078
安徽省蚌埠市龙子湖区东升街道沁心苑小区3栋,安徽省,蚌埠市,龙子湖区,32.946579,1,117.3825
安徽省蚌埠市龙子湖区解放街道东方之星小区2栋,安徽省,蚌埠市,龙子湖区,32.949001,1,117.38678
安徽省蚌埠市龙子湖区解放街道淮秀园小区3栋,安徽省,蚌埠市,龙子湖区,32.942909,1,117.39151
安徽省蚌埠市龙子湖区东升街道长淮路淮建一村10栋,安徽省,蚌埠市,龙子湖区,32.95122,2,117.379611
安徽省蚌埠市龙子湖区延安街道金珠苑小区2栋,安徽省,蚌埠市,龙子湖区,32.939171,1,117.398178
安徽省蚌埠市龙子湖区解放街道金润名都17栋,安徽省,蚌埠市,龙子湖区,32.94854,1,117.392487
安徽省蚌埠市怀远县徐圩乡钞湖村郑庄组,安徽省,蚌埠市,怀远县,33.072518,1,116.787381
安徽省蚌埠市经开区淮河社区新新尚层,安徽省,蚌埠市,经开区,32.933041,1,117.373077
安徽省蚌埠市经开区淮河社区阿卡碧水湾小区,安徽省,蚌埠市,经开区,32.924091,2,117.368279
安徽省蚌埠市经开区淮河社区香堤荣府,安徽省,蚌埠市,经开区,32.936581,1,117.385529
安徽省蚌埠市经开区湖滨社区恒大御景湾,安徽省,蚌埠市,经开区,32.912521,1,117.398888
安徽省蚌埠市经开区湖滨社区湖畔花都,安徽省,蚌埠市,经开区,32.909981,1,117.377411
安徽省蚌埠市经开区胜利街道大塘名门,安徽省,蚌埠市,经开区,32.93829,1,117.373238
安徽省蚌埠市经开区胜利街道金融小区,安徽省,蚌埠市,经开区,32.936897,1,117.378212
安徽省蚌埠市经开区胜利街道华景家园,安徽省,蚌埠市,经开区,32.933941,1,117.361687
安徽省蚌埠市经开区胜利街道东航校小区25栋,安徽省,蚌埠市,经开区,32.93705,2,117.372414
安徽省蚌埠市经开区长淮卫镇卫东村,安徽省,蚌埠市,经开区,32.943692,2,117.422791
安徽省蚌埠市经开区淮河社区新新尚层1栋,安徽省,蚌埠市,经开区,32.933041,2,117.373077
安徽省蚌埠市经开区淮河社区阿卡阳光苑6栋,安徽省,蚌埠市,经开区,32.961529,1,117.483978
安徽省蚌埠市经开区胜利街道财富广场南区2栋,安徽省,蚌埠市,经开区,32.932058,1,117.371449
安徽省蚌埠市经开区淮河社区新新尚层小区1栋,安徽省,蚌埠市,经开区,32.933041,1,117.373077
安徽省蚌埠市经开区淮河社区沁雅凯旋城19栋,安徽省,蚌埠市,经开区,32.926102,1,117.360924
安徽省蚌埠市经开区湖滨社区恒大御景湾2栋,安徽省,蚌埠市,经开区,32.912521,1,117.398888
安徽省蚌埠市经开区胜利街道蓝天紫竹苑5栋,安徽省,蚌埠市,经开区,32.934521,1,117.381042
安徽省蚌埠市经开区湖滨社区兰庭书苑1栋,安徽省,蚌埠市,经开区,32.926246,1,117.39157
安徽省蚌埠市经开区龙湖街道迎宾山庄C区14栋,安徽省,蚌埠市,经开区,32.929571,1,117.403227
安徽省蚌埠市经开区湖滨社区天湖国际C区4栋,安徽省,蚌埠市,经开区,32.916368,1,117.383541
安徽省蚌埠市怀远县徐圩乡陆湖村,安徽省,蚌埠市,怀远县,33.085072,1,116.863113
安徽省蚌埠市怀远县包集镇陈圩村肖庄组,安徽省,蚌埠市,怀远县,32.975422,1,116.899633
安徽省蚌埠市高新区文锦路社区山水华庭小区32栋,安徽省,蚌埠市,高新区,32.913931,1,117.336366
安徽省蚌埠市高新区绿地世纪城社区西绿地津桥公馆,安徽省,蚌埠市,高新区,32.90813,1,117.300478
安徽省蚌埠市高新区科苑社区嘉和豪庭1栋,安徽省,蚌埠市,高新区,32.908746,1,117.323859
安徽省蚌埠市高新区文锦路社区方圆机电小区14栋,安徽省,蚌埠市,高新区,32.915649,1,117.332031
安徽省蚌埠市高新区绿地世纪城社区伊顿公馆5栋,安徽省,蚌埠市,高新区,32.909128,1,117.302869
安徽省铜陵市义安区钟鸣镇九榔村,安徽省,铜陵市,义安区,30.955759,2,118.131409
安徽省铜陵市义安区胥坝乡长杨村,安徽省,铜陵市,义安区,31.065453,1,117.811665
安徽省铜陵市无为市牛埠镇土桥街道,安徽省,铜陵市,无为市,31.049077,1,117.6458
安徽省铜陵市枞阳县会宫镇庆华村,安徽省,铜陵市,枞阳县,30.851721,3,117.270523
安徽省铜陵市枞阳县会宫镇拔茅村,安徽省,铜陵市,枞阳县,30.82242,1,117.309029
安徽省铜陵市枞阳县枞阳镇郭桥村,安徽省,铜陵市,枞阳县,30.74229,1,117.317131
安徽省铜陵市枞阳县横埠镇左山村,安徽省,铜陵市,枞阳县,30.892969,1,117.522308
安徽省铜陵市枞阳县横埠镇建材大市场,安徽省,铜陵市,枞阳县,30.89901,2,117.506073
安徽省铜陵市枞阳县横埠镇方正村,安徽省,铜陵市,枞阳县,30.855785,1,117.439705
安徽省铜陵市枞阳县横埠镇龙山村,安徽省,铜陵市,枞阳县,30.86125,1,117.489449
安徽省铜陵市枞阳县浮山镇向阳村,安徽省,铜陵市,枞阳县,30.908291,1,117.252731
安徽省铜陵市枞阳县浮山镇浮山村,安徽省,铜陵市,枞阳县,30.90988,1,117.279861
安徽省铜陵市枞阳县白柳镇龙井村,安徽省,铜陵市,枞阳县,30.971189,1,117.332108
安徽省铜陵市枞阳县藕山镇藕山村,安徽省,铜陵市,枞阳县,30.72201,1,117.396469
安徽省铜陵市枞阳县铁铜乡新丰村,安徽省,铜陵市,枞阳县,30.6576,2,117.219467
安徽省铜陵市枞阳县雨坛镇先锋村,安徽省,铜陵市,枞阳县,30.789579,2,117.157532
安徽省铜陵市枞阳县钱铺镇将军村,安徽省,铜陵市,枞阳县,30.946737,4,117.483763
安徽省铜陵市铜官区天山社区,安徽省,铜陵市,铜官区,30.947232,1,117.837821
安徽省铜陵市铜官区机厂新村,安徽省,铜陵市,铜官区,30.919291,1,117.790466
安徽省阜阳市临泉县土陂乡运河行政村,安徽省,阜阳市,临泉县,32.77581,-1,115.458556
安徽省阜阳市临泉县土陂乡陈胡行政村,安徽省,阜阳市,临泉县,32.799271,-1,115.476303
安徽省阜阳市临泉县城东街道姜子牙广场北,安徽省,阜阳市,临泉县,33.058472,-1,115.26416
安徽省阜阳市临泉县城东街道文王社区,安徽省,阜阳市,临泉县,33.067463,-1,115.265358
安徽省阜阳市临泉县城东街道港口路天祥小区西,安徽省,阜阳市,临泉县,33.057362,-1,115.26738
安徽省阜阳市临泉县城东街道老百货公司家属院,安徽省,阜阳市,临泉县,33.062862,-1,115.27697
安徽省阜阳市临泉县城关街道戴祖寺行政村,安徽省,阜阳市,临泉县,33.102897,-1,115.177451
安徽省阜阳市临泉县城关街道王关庙村,安徽省,阜阳市,临泉县,33.067106,-1,115.213507
安徽省阜阳市临泉县城关街道银泉社区,安徽省,阜阳市,临泉县,33.07008,-1,115.26239
安徽省阜阳市临泉县城南街道新城居委会,安徽省,阜阳市,临泉县,33.046829,-1,115.284668
安徽省阜阳市临泉县城南街道新城社区,安徽省,阜阳市,临泉县,33.042404,-1,115.270111
安徽省阜阳市临泉县城南街道紫薇苑小区,安徽省,阜阳市,临泉县,33.062939,-1,115.276657
安徽省阜阳市临泉县姜寨镇姜寨村,安徽省,阜阳市,临泉县,32.98259,-1,114.995369
安徽省阜阳市临泉县宋集镇铜锣湾服饰门面房二楼,安徽省,阜阳市,临泉县,32.823757,-1,115.281278
安徽省阜阳市临泉县滑集镇朱集行政村,安徽省,阜阳市,临泉县,32.773459,-1,115.346412
安徽省阜阳市临泉县滑集镇滑集村,安徽省,阜阳市,临泉县,32.741852,-1,115.390602
安徽省阜阳市临泉县白庙镇姚集村,安徽省,阜阳市,临泉县,33.070499,-1,115.150772
安徽省阜阳市临泉县白庙镇油坊村,安徽省,阜阳市,临泉县,33.069729,-1,115.091316
安徽省阜阳市临泉县迎仙镇农商行家属楼,安徽省,阜阳市,临泉县,32.916196,-1,115.161715
安徽省阜阳市临泉县长官镇大田行政村,安徽省,阜阳市,临泉县,32.927665,-1,115.331682
安徽省阜阳市临泉县韦寨镇史寨行政村,安徽省,阜阳市,临泉县,32.978506,-1,115.130144
安徽省阜阳市临泉县高塘镇牛刘行政村,安徽省,阜阳市,临泉县,32.897282,-1,115.37442
安徽省阜阳市临泉县鲖城镇流鞍行政村,安徽省,阜阳市,临泉县,33.006699,-1,115.03669
安徽省阜阳市临泉县鲖城镇鲖阳居委会,安徽省,阜阳市,临泉县,33.078101,-1,114.986383
安徽省阜阳市临泉县迎仙镇郑寨行政村,安徽省,阜阳市,临泉县,32.894693,-1,115.152067
安徽省阜阳市临泉县城南街道名邦国际花都,安徽省,阜阳市,临泉县,33.04184,-1,115.280998
安徽省阜阳市临泉县鲖城镇杨营行政村,安徽省,阜阳市,临泉县,33.06753,-1,115.061443
安徽省阜阳市临泉县宋集镇杨蒲行政村,安徽省,阜阳市,临泉县,32.848751,-1,115.285599
安徽省阜阳市临泉县城南街道办事处,安徽省,阜阳市,临泉县,33.03644,1,115.269503
安徽省阜阳市临泉县鲖城镇,安徽省,阜阳市,临泉县,33.079017,1,114.985046
安徽省阜阳市太和县原墙镇名利集,安徽省,阜阳市,太和县,33.337399,-1,115.696327
安徽省阜阳市太和县城关镇太和世家,安徽省,阜阳市,太和县,33.166641,-1,115.625381
安徽省阜阳市太和县城关镇锦都花园,安徽省,阜阳市,太和县,33.177559,-1,115.617607
安徽省阜阳市太和县税镇镇孙楼行政村,安徽省,阜阳市,太和县,33.229099,-1,115.464691
安徽省阜阳市太和县税镇镇税南居委会,安徽省,阜阳市,太和县,33.226181,-1,115.482129
安徽省阜阳市太和县马集乡马集村聚鑫宾馆,安徽省,阜阳市,太和县,33.348077,-1,115.625395
安徽省阜阳市界首市邴集乡赵大行政村赵寨村,安徽省,阜阳市,界首市,33.449345,-1,115.397802
安徽省阜阳市阜南县公桥乡孟寨村,安徽省,阜阳市,阜南县,32.587383,-1,115.519783
安徽省阜阳市阜南县新村镇张楼村,安徽省,阜阳市,阜南县,32.858318,-1,115.523804
安徽省阜阳市阜南县新村镇梁寨村,安徽省,阜阳市,阜南县,32.89806,-1,115.54969
安徽省阜阳市阜南县新村镇白营村,安徽省,阜阳市,阜南县,32.87743,-1,115.579079
安徽省阜阳市阜南县新村镇鑫东村,安徽省,阜阳市,阜南县,32.867481,-1,115.531929
安徽省阜阳市阜南县朱寨镇闵庄村,安徽省,阜阳市,阜南县,32.697578,-1,115.926582
安徽省阜阳市阜南县柴集镇柴集村,安徽省,阜阳市,阜南县,32.812359,-1,115.591187
安徽省阜阳市阜南县洪河桥镇钐岗村,安徽省,阜阳市,阜南县,32.45602,-1,115.580994
安徽省阜阳市阜南县王家坝镇和谐村,安徽省,阜阳市,阜南县,32.43787,-1,115.629539
安徽省阜阳市阜南县王店孜乡五岳村,安徽省,阜阳市,阜南县,32.833351,-1,115.552078
安徽省阜阳市阜南县王店孜乡刘郢村,安徽省,阜阳市,阜南县,32.80658,-1,115.513718
安徽省阜阳市阜南县王店孜乡周集村,安徽省,阜阳市,阜南县,32.779041,-1,115.504272
安徽省阜阳市阜南县王店孜乡王寨村,安徽省,阜阳市,阜南县,32.822769,-1,115.555656
安徽省阜阳市阜南县王店孜乡高庄村,安徽省,阜阳市,阜南县,32.790199,-1,115.568542
安徽省阜阳市阜南县经开区中央豪景小区,安徽省,阜阳市,阜南县,32.66225,-1,115.604309
安徽省阜阳市阜南县苗集镇桃园村,安徽省,阜阳市,阜南县,32.61784,-1,115.660461
安徽省阜阳市阜南县赵集镇刘大郢,安徽省,阜阳市,阜南县,32.687221,-1,115.531732
安徽省阜阳市阜南县赵集镇刘集村,安徽省,阜阳市,阜南县,32.710091,-1,115.5159
安徽省阜阳市阜南县郜台乡刘店村,安徽省,阜阳市,阜南县,32.565868,-1,115.864098
安徽省阜阳市阜南县王店孜高寨村,安徽省,阜阳市,阜南县,32.825878,-1,115.525429
安徽省阜阳市阜南县新村镇,安徽省,阜阳市,阜南县,32.858751,3,115.525013
安徽省阜阳市阜南县王家坝镇,安徽省,阜阳市,阜南县,32.416879,1,115.632961
安徽省阜阳市颍上县半岗镇黄连沟村,安徽省,阜阳市,颍上县,32.509399,-1,116.221336
安徽省阜阳市颍上县夏桥镇夏桥社区,安徽省,阜阳市,颍上县,32.644089,-1,116.371078
安徽省阜阳市颍上县建颍乡吴东村,安徽省,阜阳市,颍上县,32.712742,-1,116.15255
安徽省阜阳市颍上县慎城镇下元东村,安徽省,阜阳市,颍上县,32.622372,-1,116.28772
安徽省阜阳市颍上县新集镇六联苏庄队,安徽省,阜阳市,颍上县,32.775458,-1,116.113457
安徽省阜阳市颍上县江口镇王李村,安徽省,阜阳市,颍上县,32.804211,-1,116.17112
安徽省阜阳市颍上县古城镇余联村李圩队,安徽省,阜阳市,颍上县,32.783642,-1,116.2528
安徽省阜阳市颍上县慎城镇一库安置区,安徽省,阜阳市,颍上县,32.628509,-1,116.275981
安徽省阜阳市颍上县慎城镇,安徽省,阜阳市,颍上县,32.643099,1,116.260474
安徽省阜阳市颍东区东平社区和谐佳苑小区,安徽省,阜阳市,颍东区,32.894554,-1,115.855995
安徽省阜阳市颍东区正午镇张庙村,安徽省,阜阳市,颍东区,32.886261,-1,115.991203
安徽省阜阳市颍东区正午镇横山村,安徽省,阜阳市,颍东区,32.929428,-1,115.96032
安徽省阜阳市颍东区正午镇田楼村,安徽省,阜阳市,颍东区,32.921478,-1,116.005653
安徽省阜阳市颍东区河东街道京九新村,安徽省,阜阳市,颍东区,32.913589,-1,115.857613
安徽省阜阳市颍东区袁寨镇袁寨居委会,安徽省,阜阳市,颍东区,32.844486,-1,115.936699
安徽省阜阳市颍东区新华街道办事处新华街道,安徽省,阜阳市,颍东区,32.96003,-1,115.893967
安徽省阜阳市颍州区三合镇新宅村,安徽省,阜阳市,颍州区,32.832829,-1,115.712532
安徽省阜阳市颍州区文峰街道办事处万达社区万达华府,安徽省,阜阳市,颍州区,32.873211,-1,115.818573
安徽省阜阳市颍州区文峰街道办事处三里岗社区碧桂园,安徽省,阜阳市,颍州区,32.925404,-1,115.817612
安徽省阜阳市颍州区文峰街道办事处奎星社区博物馆巷,安徽省,阜阳市,颍州区,32.885031,-1,115.817005
安徽省阜阳市颍州区颍西街道办事处西湖社区西城御景小区,安徽省,阜阳市,颍州区,32.901859,-1,115.795372
安徽省阜阳市颍州区马寨乡马寨居委会,安徽省,阜阳市,颍州区,32.926613,-1,115.547997
安徽省阜阳市颍州区鼓楼街道办事处双龙桥社区汇鑫小区,安徽省,阜阳市,颍州区,32.89959,-1,115.801964
安徽省阜阳市颍州区鼓楼街道办事处白衣桥社区临泉路老师范学院院内,安徽省,阜阳市,颍州区,32.89621,-1,115.803192
安徽省阜阳市颍州区清河街道办事处九里社区锦华第一郡小区,安徽省,阜阳市,颍州区,32.863739,-1,115.810089
安徽省阜阳市颍州区颍西街道办事处城郊社区徽州家园小区,安徽省,阜阳市,颍州区,32.905323,-1,115.788427
安徽省阜阳市颍州区清河街道办事处九里社区九鼎华苑小区,安徽省,阜阳市,颍州区,32.859914,-1,115.815513
安徽省阜阳市颍州区三十里铺镇,安徽省,阜阳市,颍州区,32.828334,1,115.881739
安徽省阜阳市颍泉区中市街道办事处中泰名城小区,安徽省,阜阳市,颍泉区,32.923592,-1,115.810028
安徽省阜阳市颍泉区中市街道办事处四中家属院,安徽省,阜阳市,颍泉区,32.944118,-1,115.808884
安徽省阜阳市颍泉区中市街道办事处海亮上府小区,安徽省,阜阳市,颍泉区,32.930191,-1,115.809036
安徽省阜阳市颍泉区周棚街道办事处周棚居委会,安徽省,阜阳市,颍泉区,32.991619,-1,115.852142
安徽省阜阳市颍泉区泉颍办事处祥和居小区,安徽省,阜阳市,颍泉区,32.94722,-1,115.794037
安徽省阜阳市颍泉区行流镇杨桥村,安徽省,阜阳市,颍泉区,33.0853,-1,115.67382
安徽省阜阳市开发区依心明园,安徽省,阜阳市,开发区,32.866081,-1,115.857208
安徽省阜阳市开发区十八里铺社区汽配城,安徽省,阜阳市,开发区,32.850547,-1,115.858988
安徽省宿州市砀山县关帝庙镇汤寺村,安徽省,宿州市,砀山县,34.349541,4,116.318726
安徽省宿州市砀山县北关丽都明珠小区,安徽省,宿州市,砀山县,34.440346,1,116.358315
安徽省宿州市砀山县砀城镇上海花苑小区,安徽省,宿州市,砀山县,34.426968,1,116.345627
安徽省宿州市埇桥区三八街道凯旋门小区,安徽省,宿州市,埇桥区,33.643349,1,116.948631
安徽省宿州市埇桥区凯旋门小区,安徽省,宿州市,埇桥区,33.617508,1,116.949554
安徽省宿州市埇桥区华林苑小区,安徽省,宿州市,埇桥区,33.610802,1,116.968552
安徽省宿州市埇桥区永镇乡大圩子村,安徽省,宿州市,埇桥区,33.342941,1,117.057442
安徽省宿州市埇桥区永镇乡大圩村,安徽省,宿州市,埇桥区,33.342941,1,117.057442
安徽省宿州市埇桥区汴河街道马梨园村,安徽省,宿州市,埇桥区,33.720112,2,117.012032
安徽省宿州市埇桥区三八街道磬云路汇金广场,安徽省,宿州市,埇桥区,33.644732,1,116.955167
安徽省宿州市埇桥区西关街道西关村,安徽省,宿州市,埇桥区,33.632424,1,116.963924
安徽省宿州市泗县屏山镇彭鲍村,安徽省,宿州市,泗县,33.570301,1,117.859001
安徽省宿州市泗县泗城镇三湾社区,安徽省,宿州市,泗县,33.469852,1,117.863083
安徽省宿州市泗县荣辉国际花园,安徽省,宿州市,泗县,33.478237,3,117.870056
安徽省宿州市灵璧县大庙乡,安徽省,宿州市,灵璧县,33.761822,2,117.702042
安徽省宿州市灵璧县渔沟镇跃楼村,安徽省,宿州市,灵璧县,33.857651,2,117.57943
安徽省宿州市灵璧县高楼镇,安徽省,宿州市,灵璧县,33.829632,1,117.704681
安徽省宿州市灵璧县黄湾镇,安徽省,宿州市,灵璧县,33.417889,1,117.468674
安徽省宿州市灵璧县汴水苑小区,安徽省,宿州市,灵璧县,33.524844,1,117.549397
安徽省淮北市濉溪县沱河路交通局家属楼,安徽省,淮北市,濉溪县,33.914776,1,116.762787
安徽省池州市东至县昭潭镇龙潭村,安徽省,池州市,东至县,29.7415,1,116.794888
山东省临沂市兰山区柳青街道,山东省,临沂市,兰山区,35.126823,1,118.33876
山东省临沂市兰山区银雀山街道,山东省,临沂市,兰山区,35.064812,1,118.332458
山东省临沂市兰山区兰山街道,山东省,临沂市,兰山区,35.08971,2,118.315491
山东省临沂市兰山区金雀山街道,山东省,临沂市,兰山区,35.046341,1,118.35125
山东省临沂市兰山区金雀山街道五大道住宅区,山东省,临沂市,兰山区,35.040749,1,118.361908
山东省临沂市兰山区金雀山街道市水利局家属院,山东省,临沂市,兰山区,35.068199,1,118.345123
山东省临沂市兰山区柳青街道润园小区,山东省,临沂市,兰山区,35.115822,1,118.365013
山东省临沂市河东区九曲街道,山东省,临沂市,河东区,35.068211,2,118.391769
山东省临沂市莒南县板泉镇,山东省,临沂市,莒南县,35.127801,2,118.696076
山东省临沂市莒南县坪上镇,山东省,临沂市,莒南县,35.178312,1,119.077138
山东省临沂市莒南县坪上镇坪上一村,山东省,临沂市,莒南县,35.18206,1,119.088381
山东省临沂市费县探沂镇,山东省,临沂市,费县,35.203388,1,118.134743
山东省临沂市临沭县临沭街道,山东省,临沂市,临沭县,34.91687,1,118.662552
山东省临沂市兰陵县卞庄街道,山东省,临沂市,兰陵县,34.860512,1,118.078629
山东省临沂市平邑县柏林镇,山东省,临沂市,平邑县,35.52396,2,117.7668
山东省临沂市平邑县柏林镇柏林村,山东省,临沂市,平邑县,35.523872,2,117.766926
山东省临沂市沂水县许家湖镇,山东省,临沂市,沂水县,35.72443,1,118.622437
山东省临沂市沂水县道托镇,山东省,临沂市,沂水县,35.894939,1,118.688271
山东省临沂市沂南县铜井镇,山东省,临沂市,沂南县,35.60627,3,118.471672
山东省临沂市郯城县泉源乡,山东省,临沂市,郯城县,34.737209,1,118.438812
山东省泰安市新泰市羊流镇王家林村,山东省,泰安市,新泰市,36.018021,3,117.501968
山东省泰安市新泰市幸福里小区对过原山东电缆厂宿舍10号楼,山东省,泰安市,新泰市,35.91592,1,117.762558
山东省泰安市新泰市青云街道大洼村,山东省,泰安市,新泰市,35.893799,1,117.781616
山东省泰安市高新区北集坡街道安居幸福里小区,山东省,泰安市,高新区,36.1241,4,117.119873
山东省泰安市高新区北集坡街道龙泉小区,山东省,泰安市,高新区,36.121262,-1,117.116982
山东省泰安市高新区良庄镇茅茨西村,山东省,泰安市,高新区,35.987325,2,117.236786
山东省泰安市东平县银山镇东茂王村,山东省,泰安市,东平县,36.075039,1,116.148308
山东省泰安市东平县银山镇昆山村,山东省,泰安市,东平县,36.003841,1,116.168694
山东省泰安市泰山区上高凤凰小区10号楼,山东省,泰安市,泰山区,36.186329,1,117.162941
山东省泰安市泰山区上高办事处雷诺名郡,山东省,泰安市,泰山区,36.195801,-1,117.168922
山东省泰安市泰山区丽景花园小区1期6号楼,山东省,泰安市,泰山区,36.197117,1,117.146033
山东省泰安市泰山区岱庙办事处东湖小区,山东省,泰安市,泰山区,36.188389,-1,117.1418
山东省泰安市泰山区岱庙办事处杏林佳苑2号楼,山东省,泰安市,泰山区,36.190367,-1,117.150083
山东省泰安市泰山区岱庙街道温泉路国土资源局宿舍1号楼,山东省,泰安市,泰山区,36.193859,3,117.151062
山东省泰安市泰山区擂鼓石花园10号楼,山东省,泰安市,泰山区,36.200857,2,117.110513
山东省泰安市泰山区泰前办事处军星花园,山东省,泰安市,泰山区,36.206798,-1,117.126432
山东省泰安市泰山区泰前办事处泰前西村,山东省,泰安市,泰山区,36.206798,-1,117.126432
山东省泰安市泰山区泮河大街老儿童医院宿舍,山东省,泰安市,泰山区,36.172321,1,117.110069
山东省泰安市泰山区财源街道粮食局宿舍1号楼,山东省,泰安市,泰山区,36.19156,1,117.124865
山东省泰安市泰山区邱家店镇府前花园2号楼,山东省,泰安市,泰山区,36.159168,1,117.244224
山东省泰安市泰山区上高街道凤凰小区,山东省,泰安市,泰山区,36.186329,1,117.162941
山东省泰安市泰山区泰前街道华新山水居,山东省,泰安市,泰山区,36.208199,1,117.147865
山东省泰安市肥城市大封矿宿舍18号楼,山东省,泰安市,肥城市,36.225681,2,116.753021
山东省泰安市宁阳县文庙街道锦绣城1号楼,山东省,泰安市,宁阳县,35.76897,1,116.818108
山东省泰安市岱岳区徂徕镇南黄崖村,山东省,泰安市,岱岳区,36.100816,1,117.343258
山东省泰安市岱岳区粥店街道驾新苑A区,山东省,泰安市,岱岳区,36.185631,1,117.061638
山东省泰安市岱岳区范镇东岔河村富兴家园,山东省,泰安市,岱岳区,36.206989,1,117.338753
山东省济南市历下区趵突泉小区一区,山东省,济南市,历下区,36.65865,-1,117.01874
山东省济南市历下区姚家街道窑头小区,山东省,济南市,历下区,36.654018,1,117.07972
山东省济南市历下区利农庄23号,山东省,济南市,历下区,36.675165,-1,117.0504
山东省济南市历下区姚家街道万科城,山东省,济南市,历下区,36.683529,1,117.107979
山东省济南市历下区甸新东路甸柳家园,山东省,济南市,历下区,36.658245,1,117.066238
山东省济南市历下区甸新东路甸新佳园,山东省,济南市,历下区,36.663486,1,117.071701
山东省济南市历下区锦屏家园,山东省,济南市,历下区,36.62809,1,117.121803
山东省济南市市中区中海国际社区A2区,山东省,济南市,市中区,36.609737,-1,116.981369
山东省济南市市中区中海国际社区C2区,山东省,济南市,市中区,36.609718,-1,116.979805
山东省济南市市中区二七新村南路20号,山东省,济南市,市中区,36.62988,-1,116.98795
山东省济南市市中区十六里河街道万寿路,山东省,济南市,市中区,36.60424,-1,116.998207
山东省济南市槐荫区美里新居小区三区,山东省,济南市,槐荫区,36.695732,-1,116.94445
山东省济南市槐荫区锦绣兰庭小区12号楼,山东省,济南市,槐荫区,36.67894,-1,116.91227
山东省济南市槐荫区幸福街泉城花园,山东省,济南市,槐荫区,36.678539,-1,116.94294
山东省济南市槐荫区经十路25366号舜承苑西区,山东省,济南市,槐荫区,36.648697,-1,116.948715
山东省济南市高新区黄金时代小区,山东省,济南市,高新区,36.669563,-1,117.130669
山东省济南市长清区崮云湖乐天小区,山东省,济南市,长清区,36.554859,-1,116.781082
山东省济南市历城区锦绣澜湾小区,山东省,济南市,历城区,36.705383,-1,117.059029
山东省济南市天桥区泺口街道河畔景苑小区,山东省,济南市,天桥区,36.717396,-1,117.01165
山东省济南市平阴县榆山街道龙山小区,山东省,济南市,平阴县,36.274761,-1,116.456688
山东省济南市章丘区刁镇街道办季周村,山东省,济南市,章丘区,36.934711,-1,117.418121
山东省济宁市任城区如意家园,山东省,济宁市,任城区,35.418755,1,116.628571
山东省济宁市任城区如意嘉园,山东省,济宁市,任城区,35.417519,1,116.631699
山东省济宁市任城区建设新村,山东省,济宁市,任城区,35.404852,3,116.602228
山东省济宁市任城区太白国际,山东省,济宁市,任城区,35.402992,1,116.575699
山东省济宁市任城区济阳街道太白国际,山东省,济宁市,任城区,35.402733,1,116.574289
山东省济宁市任城区济阳街道太白国际小区4号楼,山东省,济宁市,任城区,35.403925,1,116.58467
山东省济宁市任城区任兴路任兴家园,山东省,济宁市,任城区,35.446769,1,116.618973
山东省济宁市任城区唐口镇大流店村,山东省,济宁市,任城区,35.281275,1,116.531863
山东省济宁市高新区洸河街道市检察院宿舍,山东省,济宁市,高新区,35.422066,1,116.612244
山东省济宁市高新区海亮公馆,山东省,济宁市,高新区,35.4231,2,116.651291
山东省济宁市高新区洸河街道舜泰园小区,山东省,济宁市,高新区,35.428116,1,116.607765
山东省济宁市嘉祥县仲山镇仲山西村,山东省,济宁市,嘉祥县,35.336658,1,116.258698
山东省济宁市曲阜市鲁城街道卫生局家属院,山东省,济宁市,曲阜市,35.580349,1,116.99398
山东省济宁市曲阜市小雪街道武家村,山东省,济宁市,曲阜市,35.500629,1,117.001518
山东省济宁市曲阜市书院街道旧县三街,山东省,济宁市,曲阜市,35.60157,1,117.03553
山东省济宁市曲阜市鲁城街道南关体育局家属院,山东省,济宁市,曲阜市,30.350173,1,112.018242
山东省济宁市兖州区奎星苑小区,山东省,济宁市,兖州区,35.542389,6,116.833717
山东省济宁市兖州区颜店镇李宫一村,山东省,济宁市,兖州区,35.60397,1,116.626602
山东省济宁市汶上县信合小区,山东省,济宁市,汶上县,35.717823,1,116.492569
山东省济宁市汶上县义桥镇孙汪村,山东省,济宁市,汶上县,35.676373,1,116.575104
山东省济宁市金乡县化雨镇吴海村,山东省,济宁市,金乡县,34.96793,1,116.405197
山东省淄博市博山区城东街道恒泰怡景,山东省,淄博市,博山区,36.497879,4,117.872101
山东省淄博市博山区域城镇颜山国际,山东省,淄博市,博山区,36.494461,4,117.83812
山东省淄博市博山区城东街道办事处青龙山鑫龙东苑,山东省,淄博市,博山区,36.506058,1,117.873848
山东省淄博市博山区城西街道双山路16号玉祥小区,山东省,淄博市,博山区,36.501864,1,117.863028
山东省淄博市周村区青年路办事处区交通局宿舍,山东省,淄博市,周村区,36.807789,1,117.867027
山东省淄博市张店区马尚镇龙凤苑小区,山东省,淄博市,张店区,36.831921,3,118.008537
山东省淄博市张店区湖田街道保安小区,山东省,淄博市,张店区,36.787029,2,118.064278
山东省淄博市桓台县新城镇邢家村,山东省,淄博市,桓台县,36.978989,1,117.934715
山东省淄博市高新区石桥街道新空间花园,山东省,淄博市,高新区,36.850529,1,118.064598
山东省淄博市高新区小寨村四宝山街道,山东省,淄博市,高新区,36.856651,1,118.148659
山东省淄博市淄川区昆仑镇电瓷厂宿舍,山东省,淄博市,淄川区,36.603844,2,117.925418
山东省淄博市淄川区龙泉镇龙四村,山东省,淄博市,淄川区,36.584251,7,117.981682
山东省枣庄市山亭区中水峪村,山东省,枣庄市,山亭区,35.131329,2,117.432549
山东省枣庄市山亭区青屏路千水星家具店,山东省,枣庄市,山亭区,35.10887,1,117.45133
山东省枣庄市山亭区千水星家具店,山东省,枣庄市,山亭区,35.10859,1,117.448753
山东省枣庄市山亭区府前路太清湖小区,山东省,枣庄市,山亭区,35.098125,1,117.464523
山东省枣庄市峄城区濠江花园,山东省,枣庄市,峄城区,34.77589,4,117.578781
山东省枣庄市峄城区前湾村坛山街道,山东省,枣庄市,峄城区,34.78265,1,117.585442
山东省枣庄市滕州市鲍沟镇薛中村,山东省,枣庄市,滕州市,34.978241,1,117.151703
山东省枣庄市滕州市大坞镇大坞村,山东省,枣庄市,滕州市,35.117039,1,116.989014
山东省枣庄市滕州市东沙河镇党村,山东省,枣庄市,滕州市,35.082821,1,117.226768
山东省枣庄市薛城区临山路朝阳小区,山东省,枣庄市,薛城区,34.79155,1,117.257942
山东省枣庄市薛城区临城街道阳光小区,山东省,枣庄市,薛城区,34.793076,1,117.304123
山东省枣庄市台儿庄区涧头集镇谢庄村,山东省,枣庄市,台儿庄区,34.492627,1,117.528841
山东省青岛市崂山区东姜外贸度假村2-西-207,山东省,青岛市,崂山区,36.10788,2,120.535042
山东省青岛市平度市经济开发区前八里庄村,山东省,青岛市,平度市,36.752594,1,119.990402
山东省青岛市莱西市翡翠城西区,山东省,青岛市,莱西市,36.894096,1,120.517693
山东省青岛市黄岛区嘉陵江东路258号华裕黄金海岸,山东省,青岛市,黄岛区,35.96354,1,120.22892
山东省青岛市黄岛区长江西路157号凤凰国际小区,山东省,青岛市,黄岛区,35.94967,2,120.17901
山东省烟台市高新区银海熙岸小区,山东省,烟台市,高新区,37.4478,1,121.503616
山东省烟台高新区银海熙岸,山东省,烟台市,高新区,37.445347,1,121.504349
山东省烟台市海阳市嵩山街,山东省,烟台市,海阳市,36.785067,1,121.160348
山东省烟台市牟平区新华里村,山东省,烟台市,牟平区,37.378979,1,121.592918
烟台市招远市罗峰办事处石门宋家村,山东省,烟台市,招远市,37.37041,2,120.375438
山东省烟台市招远市城南西区,山东省,烟台市,招远市,37.350894,1,120.403937
山东省烟台市招远市西苑龙馨技校家属楼,山东省,烟台市,招远市,37.362425,2,120.389922
山东省烟台市芝罘区香槟小镇,山东省,烟台市,芝罘区,37.462452,2,121.352913
山东省滨州市惠民县姜楼镇,山东省,滨州市,惠民县,37.225552,2,117.491768
山东省滨州市滨城区市西街道办事处,山东省,滨州市,滨城区,37.375771,1,118.002151
山东省滨州市阳信县水落坡镇,山东省,滨州市,阳信县,37.586399,1,117.762932
山东省滨州市邹平市西董街道办事处,山东省,滨州市,邹平市,36.813145,1,117.744751
山东省滨州市邹平市韩店镇,山东省,滨州市,邹平市,36.95013,3,117.71122
山东省滨州市邹平市黄山街道办事处,山东省,滨州市,邹平市,36.85881,1,117.749931
山东省滨州市邹平市黛溪街道办事处,山东省,滨州市,邹平市,36.882542,1,117.728241
山东省滨州市无棣县海丰街道办事处付家村,山东省,滨州市,无棣县,37.742901,3,117.562477
山东省聊城市东昌府区柳园街道唐庄回迁小区,山东省,聊城市,东昌府区,36.432861,2,115.990593
山东省聊城市东昌府区古楼办事处回民小区,山东省,聊城市,东昌府区,36.446134,1,115.980076
山东省聊城市东昌府区古楼办事处望湖小区,山东省,聊城市,东昌府区,36.432259,2,115.942886
山东省聊城市东昌府区柳园街道育新街7号,山东省,聊城市,东昌府区,36.455761,1,115.992595
山东省聊城市经济技术开发区蒋官屯街道办事处前铺村,山东省,聊城市,经济技术开发区,36.505583,1,116.101366
山东省聊城市阳谷县侨润办事处工商局家属院,山东省,聊城市,阳谷县,36.118342,1,115.798961
山东省聊城市阳谷县侨润街道办事处东润紫金苑,山东省,聊城市,阳谷县,36.119252,2,115.787997
山东省日照市东港区山海天旅游度假区卧龙山街道,山东省,日照市,东港区,35.450741,2,119.581291
山东省德州市乐陵市化楼镇石家村,山东省,德州市,乐陵市,37.729608,1,117.187398
山东省德州市武城县武城镇肖邢王庄村,山东省,德州市,武城县,37.172499,1,116.142478
山东省威海市临港区苘山镇和谐苑小区,山东省,威海市,临港区,37.279997,1,122.075563
山东省威海市乳山市海阳所镇海韵观海苑小区,山东省,威海市,乳山市,36.813751,1,121.620054
山东省威海市文登区龙山街道办事处三里河路,山东省,威海市,文登区,37.206894,1,122.046947
山东省威海市环翠区张村镇琅声园小区,山东省,威海市,环翠区,37.483032,1,122.022629
山东省威海市经区富安花园小区,山东省,威海市,经区,37.417145,1,122.146666
山西省晋城市城区钟家庄迎宾街建行小区,山西省,晋城市,城区,35.479191,1,112.856483
山西省晋城市泽州县北义城镇北义城村红星三巷,山西省,晋城市,泽州县,35.638527,1,112.95233
山西省晋城市泽州县北石店镇锦泰嘉园小区,山西省,晋城市,泽州县,35.550671,1,112.902649
山西省晋城市阳城县水村商业园B区,山西省,晋城市,阳城县,35.49018,1,112.40662
山西省晋城市陵川县崇文镇城南社区王家巷,山西省,晋城市,陵川县,35.76662,1,113.279335
山西省晋城市沁水县郑庄镇中乡村,山西省,晋城市,沁水县,35.677219,3,112.456207
山西省太原市小店区华泰御景湾,山西省,太原市,小店区,37.798328,1,112.544342
山西省太原市小店区正阳街汇泰丽城,山西省,太原市,小店区,37.723492,1,112.577393
山西省太原市小店区营盘街道体育北街6号山西省政法管理干部学院宿舍,山西省,太原市,小店区,37.83687,1,112.57749
山西省太原市尖草坪区汇丰街道兴华街北小区,山西省,太原市,尖草坪区,37.887907,4,112.518139
山西省太原市尖草坪区南寨兴安社区64号楼,山西省,太原市,尖草坪区,37.973298,1,112.542627
山西省太原市晋源区焦化小区,山西省,太原市,晋源区,37.761181,2,112.48594
山西省太原市杏花岭区巨轮街胜利桥东路省统计局宿舍,山西省,太原市,杏花岭区,37.871083,1,112.577921
山西省太原市杏花岭区胜利东街晋安3号院,山西省,太原市,杏花岭区,37.895027,1,112.578262
山西省太原市迎泽区桥东街道东方红小区,山西省,太原市,迎泽区,37.852959,1,112.59063
山西省太原市迎泽区迎泽街道牛站巷迎泽苑8号楼,山西省,太原市,迎泽区,37.848552,1,112.561471
山西省晋中市寿阳县田园路,山西省,晋中市,寿阳县,39.149685,1,117.19928
山西省长治市长子县庆丰小区,山西省,长治市,长子县,36.116348,1,112.875748
广东省东莞市厚街镇万达广场公寓,广东省,东莞市,厚街镇,22.943965,-1,113.673548
广东省东莞市厚街镇世纪绿洲,广东省,东莞市,厚街镇,22.863665,-1,113.661491
广东省东莞市厚街镇珊美社区兴隆路汉邦66,广东省,东莞市,厚街镇,22.932842,-1,113.663232
广东省东莞市厚街镇珊美社区河田大道,广东省,东莞市,厚街镇,22.930479,-1,113.66127
广东省东莞市大岭山镇龙光君御华府,广东省,东莞市,大岭山镇,22.908171,-1,113.851852
广东省东莞市大岭山镇松湖澜园,广东省,东莞市,大岭山镇,22.92425,-1,113.829514
广东省东莞市大朗镇大角岭工业区,广东省,东莞市,大朗镇,22.923321,-1,113.920326
广东省东莞市寮步镇牛杨社区大香园,广东省,东莞市,寮步镇,22.95265,-1,113.881271
广东省东莞市寮步镇石龙坑龙泉二区,广东省,东莞市,寮步镇,22.984497,-1,113.88287
广东省东莞市常平镇木伦村中央公园,广东省,东莞市,常平镇,22.982019,-1,113.999474
广东省东莞市常平镇金凯水都别墅,广东省,东莞市,常平镇,22.98032,-1,114.017975
广东省东莞市松山湖工业西二路,广东省,东莞市,松山湖,22.89422,-1,113.881477
广东省东莞市松山湖工业北三路保利红珊瑚,广东省,东莞市,松山湖,22.963079,-1,113.901558
广东省东莞市长安镇乌沙社区金兴大厦,广东省,东莞市,长安镇,22.785789,-1,113.807869
广东省东莞市长安镇新安社区园山仔路,广东省,东莞市,长安镇,22.819059,-1,113.792343
广东省东莞市长安镇新安社区增田村,广东省,东莞市,长安镇,22.819059,-1,113.792343
广东省东莞市长安镇沙头社区西大路,广东省,东莞市,长安镇,22.779457,-1,113.765762
广东省东莞市高埗镇上江城村众兴街,广东省,东莞市,高埗镇,23.06716,-1,113.742638
广东省东莞市黄江镇梅塘社区中信红树山,广东省,东莞市,黄江镇,22.855301,-1,113.982887
广东省东莞市黄江镇田美社区板湖村富康花园,广东省,东莞市,黄江镇,22.91613,-1,114.015015
广东省东莞市黄江镇田美社区玉堂围村,广东省,东莞市,黄江镇,22.918301,-1,114.010071
广东省东莞市黄江镇宝山社区,广东省,东莞市,黄江镇,22.90856,-1,114.014809
广东省东莞市虎门镇博涌社区博美村,广东省,东莞市,虎门镇,22.831121,-1,113.679886
广东省东莞市虎门镇博涌社区柏景豪庭,广东省,东莞市,虎门镇,22.820049,-1,113.683937
广东省东莞市虎门镇则徐社区风华豪庭,广东省,东莞市,虎门镇,22.811275,-1,113.672585
广东省东莞市东城区东泰社区东泰花园,广东省,东莞市,东城区,23.000601,-1,113.757591
广东省东莞市东城区温塘社区冚下新村,广东省,东莞市,东城区,23.038773,-1,113.834015
广东省东莞市凤岗镇凤岗社区金凤路,广东省,东莞市,凤岗镇,22.741089,-1,114.130356
广东省东莞市凤岗镇官井头村大运城邦,广东省,东莞市,凤岗镇,22.719704,-1,114.204758
广东省东莞市凤岗镇竹塘村,广东省,东莞市,凤岗镇,22.75569,-1,114.143463
广东省东莞市凤岗镇黄洞村田心村,广东省,东莞市,凤岗镇,22.748449,-1,114.163736
广东省东莞市石排镇太和社区碧水云天,广东省,东莞市,石排镇,23.084463,-1,113.938629
广东省东莞市道滘镇五福里小区,广东省,东莞市,道滘镇,23.00709,-1,113.681686
广东省东莞市望牛墩镇朱平沙村,广东省,东莞市,望牛墩镇,23.03352,-1,113.614082
广东省东莞市塘厦镇莲湖社区科莲路,广东省,东莞市,塘厦镇,22.826038,-1,114.10437
广东省东莞市塘厦镇石潭埔社区塘鲺龙三街,广东省,东莞市,塘厦镇,22.813879,-1,114.114133
广东省东莞市塘厦镇花园新街1号时代城,广东省,东莞市,塘厦镇,22.810011,-1,114.102402
广东省东莞市塘厦镇塘虱龙三街,广东省,东莞市,塘厦镇,22.813737,-1,114.114048
广东省东莞市南城区袁屋边社区,广东省,东莞市,南城区,22.989753,-1,113.716606
广东省东莞市南城区国际公馆,广东省,东莞市,南城区,22.986247,-1,113.745321
广东省东莞市南城区金域中央,广东省,东莞市,南城区,22.973896,-1,113.719865
广东省东莞市莞城区创业社区塞纳河畔,广东省,东莞市,莞城区,23.03676,-1,113.744232
广东省东莞市东坑镇坑美村碧桂园,广东省,东莞市,东坑镇,22.989738,-1,113.963707
广东省东莞市石碣镇涌口村百悦商贸城,广东省,东莞市,石碣镇,23.108879,-1,113.81469
广东省东莞市石龙镇聚龙里,广东省,东莞市,石龙镇,23.112402,-1,113.856407
广东省中山市东区星光礼寓,广东省,中山市,东区,22.50004,5,113.374207
广东省中山市东升镇可逸豪苑,广东省,中山市,东升镇,22.57876,3,113.319168
广东省中山市东升镇丽景名筑,广东省,中山市,东升镇,22.618589,1,113.270081
广东省中山市坦洲镇汇翠山庄,广东省,中山市,坦洲镇,22.264999,1,113.484268
广东省中山市坦洲镇海伦堡,广东省,中山市,坦洲镇,22.26605,1,113.497238
广东省中山市坦洲镇锦绣阳光花园,广东省,中山市,坦洲镇,22.278724,2,113.466296
广东省中山市石岐区富豪山庄,广东省,中山市,石岐区,22.52622,1,113.395554
广东省中山市石岐区长虹蓝湾半岛,广东省,中山市,石岐区,22.55547,3,113.391563
广东省中山市石岐区利和豪庭,广东省,中山市,石岐区,22.502991,2,113.363564
广东省中山市石岐区民安街,广东省,中山市,石岐区,22.356786,2,113.43985
广东省中山市石岐区上海城,广东省,中山市,石岐区,22.50351,2,113.366179
广东省中山市黄圃镇大岑工业区,广东省,中山市,黄圃镇,22.74807,1,113.337189
广东省中山市黄圃镇奥城花园,广东省,中山市,黄圃镇,22.702761,1,113.351883
广东省中山市黄圃镇蓝天金地花园,广东省,中山市,黄圃镇,22.72163,1,113.336021
广东省中山市黄圃镇大岑村雪莱路外工村,广东省,中山市,黄圃镇,22.752842,1,113.351034
广东省中山市黄圃镇御品泰景,广东省,中山市,黄圃镇,22.722639,3,113.332123
广东省中山市黄圃镇春江花苑,广东省,中山市,黄圃镇,22.71132,2,113.339084
广东省中山市黄圃镇大岑村外工村,广东省,中山市,黄圃镇,22.750096,1,113.34251
广东省中山市板芙镇雅芙花园,广东省,中山市,板芙镇,22.413799,1,113.327141
广东省中山市火炬开发区健康花城,广东省,中山市,火炬开发区,22.545719,1,113.47966
广东省中山市火炬开发区凯茵新城,广东省,中山市,火炬开发区,22.508459,1,113.461563
广东省中山市火炬开发区联富社区,广东省,中山市,火炬开发区,22.537167,2,113.428986
广东省中山市火炬开发区逸骏华庭,广东省,中山市,火炬开发区,22.56222,1,113.488487
广东省中山市火炬开发区濠泗下街,广东省,中山市,火炬开发区,22.570218,1,113.433977
广东省中山市火炬开发区铂爵山,广东省,中山市,火炬开发区,22.547407,2,113.456688
广东省中山市民众镇多宝村,广东省,中山市,民众镇,22.600104,1,113.477136
广东省中山市三乡镇观景大道亚秀街,广东省,中山市,三乡镇,22.356786,1,113.43985
广东省中山市三乡镇金涌大道雅居乐万象郡,广东省,中山市,三乡镇,22.33441,-1,113.459801
广东省中山市三乡镇鹤泉山庄,广东省,中山市,三乡镇,22.31518,1,113.476646
广东省中山市沙溪镇水岸街水岸花都,广东省,中山市,沙溪镇,22.528919,3,113.319611
广东省中山市三角镇乌沙村三角镇乌沙村,广东省,中山市,三角镇,22.67778,1,113.393311
广东省中山市东凤镇东御世家,广东省,中山市,东凤镇,22.697531,1,113.25708
广东省中山市东凤镇佛澳阳光花园,广东省,中山市,东凤镇,22.687269,1,113.26548
广东省中山市东凤镇西罟村,广东省,中山市,东凤镇,22.6542,1,113.290556
广东省中山市横栏镇阳光花园,广东省,中山市,横栏镇,22.57596,1,113.229027
广东省中山市西区广浩华庭,广东省,中山市,西区,22.56184,4,113.340424
广东省中山市阜沙镇阜港西路赢天阁,广东省,中山市,阜沙镇,22.669395,1,113.347313
广东省中山市阜沙镇丰联村祥和街,广东省,中山市,阜沙镇,22.708269,1,113.317424
广东省佛山市三水区云东海街道林海尚都,广东省,佛山市,三水区,23.182989,-1,112.883263
广东省佛山市三水区云东海街道雅湖半岛,广东省,佛山市,三水区,23.17037,-1,112.908669
广东省佛山市三水区西南街道博雅滨江,广东省,佛山市,三水区,23.1607,-1,112.875893
广东省佛山市三水区西南街道恒达花园,广东省,佛山市,三水区,23.1754,-1,112.893478
广东省佛山市三水区大塘镇开元路8号山龙纺织染厂宿舍,广东省,佛山市,三水区,23.449309,-1,112.944174
广东省佛山市三水区乐平镇源潭张岗头村新六巷,广东省,佛山市,三水区,23.26638,-1,112.976973
广东省佛山市三水区云东海街道绿湖爱伦堡二区,广东省,佛山市,三水区,23.186287,-1,112.860285
广东省佛山市南海区大沥镇盐步隔海市场,广东省,佛山市,南海区,23.097975,-1,113.170006
广东省佛山市南海区大沥镇维京酒店,广东省,佛山市,南海区,23.112801,-1,113.194618
广东省佛山市南海区大沥镇黄岐万科四季花城,广东省,佛山市,南海区,23.1525,-1,113.183952
广东省佛山市南海区桂城街道中海千灯湖1号,广东省,佛山市,南海区,23.06386,-1,113.143257
广东省佛山市南海区桂城街道保利叶公馆,广东省,佛山市,南海区,23.04575,-1,113.156036
广东省佛山市南海区桂城街道夏南二大街,广东省,佛山市,南海区,23.05645,-1,113.179848
广东省佛山市南海区桂城街道怡翠玫瑰园,广东省,佛山市,南海区,23.010151,-1,113.144981
广东省佛山市南海区桂城街道景裕豪园,广东省,佛山市,南海区,23.065109,-1,113.137352
广东省佛山市南海区狮山镇罗村力迅城筑,广东省,佛山市,南海区,23.07313,-1,113.050667
广东省佛山市南海区西樵镇三胜颐景园,广东省,佛山市,南海区,22.96833,-1,112.978111
广东省佛山市南海区西樵镇西岸社区碧桂园,广东省,佛山市,南海区,22.876016,-1,112.88695
广东省佛山市南海区里水镇维也纳酒店,广东省,佛山市,南海区,23.195182,-1,113.161337
广东省佛山市南海区里水镇金沙洲恒大御景半岛,广东省,佛山市,南海区,23.176781,-1,113.210098
广东省佛山市南海区怡翠馨园,广东省,佛山市,南海区,23.02763,-1,113.170288
广东省佛山市南海区九江沙头城区裕和公寓,广东省,佛山市,南海区,22.90678,-1,113.029653
广东省佛山市南海区桂城丽雅苑,广东省,佛山市,南海区,23.051041,-1,113.13768
广东省佛山市南海区里水镇沙涌环村南路十巷,广东省,佛山市,南海区,23.146349,-1,113.167013
广东省佛山市南海区狮山镇兴贤村委会上北村,广东省,佛山市,南海区,23.124876,-1,113.075321
广东省佛山市南海区里水镇恒大御景半岛,广东省,佛山市,南海区,23.192301,3,113.205442
广东省佛山市南海区狮山镇罗村长信银湾小区,广东省,佛山市,南海区,23.050998,-1,113.033694
广东省佛山市南海区里水镇沙涌环村西路,广东省,佛山市,南海区,23.146476,-1,113.166801
广东省佛山市南海区九江镇沙头水南社区裕和公寓,广东省,佛山市,南海区,22.906874,-1,113.029634
广东省佛山市禅城区南庄镇万科城,广东省,佛山市,禅城区,22.97072,-1,112.999153
广东省佛山市禅城区张槎街道保利香槟花园,广东省,佛山市,禅城区,23.03297,-1,113.08223
广东省佛山市禅城区石湾镇街道依云上城,广东省,佛山市,禅城区,22.992149,-1,113.15094
广东省佛山市禅城区石湾镇街道碧桂园城市花园,广东省,佛山市,禅城区,22.983646,-1,113.124353
广东省佛山市禅城区祖庙街道同华西二路,广东省,佛山市,禅城区,23.014219,-1,113.110229
广东省佛山市禅城区祖庙街道旭辉公元,广东省,佛山市,禅城区,23.048349,-1,113.110229
广东省佛山市禅城区石湾镇街道怡景丽苑,广东省,佛山市,禅城区,22.986549,-1,113.137581
广东省佛山市禅城区魁奇二路139号依云上城,广东省,佛山市,禅城区,22.99264,-1,113.15095
广东省佛山市顺德区乐从镇保利拉菲,广东省,佛山市,顺德区,22.94997,-1,113.081032
广东省佛山市顺德区乐从镇御庭沣酒店,广东省,佛山市,顺德区,22.946686,-1,113.107536
广东省佛山市顺德区北滘镇深业城,广东省,佛山市,顺德区,22.920164,-1,113.21833
广东省佛山市顺德区北滘镇碧桂西苑听涛居,广东省,佛山市,顺德区,22.93733,-1,113.269608
广东省佛山市顺德区北滘镇美的悦公馆,广东省,佛山市,顺德区,22.93792,-1,113.204819
广东省佛山市顺德区大良街道汇城华庭,广东省,佛山市,顺德区,22.821529,-1,113.253304
广东省佛山市顺德区容桂街道扁滘柏悦湾,广东省,佛山市,顺德区,22.746131,-1,113.315474
广东省佛山市顺德区容桂街道晖胜尚轩,广东省,佛山市,顺德区,22.74832,-1,113.277969
广东省佛山市顺德区容桂街道龙光尚街大厦,广东省,佛山市,顺德区,22.754471,-1,113.269096
广东省佛山市顺德区龙江镇龙山南湖雅园,广东省,佛山市,顺德区,22.847649,-1,113.0299
广东省佛山市顺德区伦教街道中海万锦公馆,广东省,佛山市,顺德区,22.863131,-1,113.206383
广东省佛山市顺德区乐从镇沙滘北村聚星里大街,广东省,佛山市,顺德区,22.94194,-1,113.079178
广东省佛山市顺德区容桂街道振华康富花园,广东省,佛山市,顺德区,22.763491,-1,113.272942
广东省佛山市顺德区大良街道鉴海南路2号都汇豪庭,广东省,佛山市,顺德区,22.82646,-1,113.25791
广东省佛山市顺德区陈村镇花地湾,广东省,佛山市,顺德区,22.951725,-1,113.245662
广东省广州市从化区城郊街新雍丽酒店,广东省,广州市,从化区,23.5555,-1,113.577629
广东省广州市南沙区南沙街坦头村槽船一街,广东省,广州市,南沙区,22.806219,-1,113.564842
广东省广州市南沙区叠翠峰,广东省,广州市,南沙区,22.796789,-1,113.520531
广东省广州市南沙区榄核镇菜园东街,广东省,广州市,南沙区,23.12287,-1,113.291546
广东省广州市南沙区碧桂园天玺湾小区,广东省,广州市,南沙区,22.79892,-1,113.577682
广东省广州市南沙区黄阁镇万科南方公元,广东省,广州市,南沙区,22.8053,-1,113.501678
广东省广州市南沙区黄阁镇璧珑湾,广东省,广州市,南沙区,22.79995,-1,113.529839
广东省广州市增城区新塘镇太平洋花园,广东省,广州市,增城区,23.11718,-1,113.578033
广东省广州市增城区新塘镇尚东阳光,广东省,广州市,增城区,23.10317,-1,113.575249
广东省广州市增城区新塘镇翡翠绿洲,广东省,广州市,增城区,23.138273,-1,113.561668
广东省广州市增城区新塘镇西洲村,广东省,广州市,增城区,23.101259,-1,113.581223
广东省广州市增城区新塘镇西洲村豪门公寓,广东省,广州市,增城区,23.119909,-1,113.611107
广东省广州市增城区荔城街中海城市广场,广东省,广州市,增城区,23.28616,-1,113.824699
广东省广州市增城区新塘镇大墩村,广东省,广州市,增城区,23.12541,-1,113.668289
广东省广州市增城区新塘镇富丽园二街,广东省,广州市,增城区,23.127984,-1,113.609809
广东省广州市增城区增江街道碧桂园,广东省,广州市,增城区,23.280397,-1,113.851707
广东省广州市增城区增江街道碧桂园荔园,广东省,广州市,增城区,23.275881,-1,113.845337
广东省广州市天河区体育西小区,广东省,广州市,天河区,23.130356,-1,113.325111
广东省广州市天河区兴华街沙太南路,广东省,广州市,天河区,23.16279,-1,113.322929
广东省广州市天河区冼村街道华明路,广东省,广州市,天河区,23.12216,-1,113.322487
广东省广州市天河区冼村街道潭村路珠光御景,广东省,广州市,天河区,23.11773,-1,113.349
广东省广州市天河区冼村街道珠光新城御景二期,广东省,广州市,天河区,23.11635,-1,113.34836
广东省广州市天河区冼村街道马场路富力花园,广东省,广州市,天河区,23.11352,-1,113.3434
广东省广州市天河区凤凰街道渔兴路,广东省,广州市,天河区,23.20586,-1,113.375671
广东省广州市天河区前进街盈彩美居街彩轩,广东省,广州市,天河区,23.114301,-1,113.418147
广东省广州市天河区合景路,广东省,广州市,天河区,23.155712,-1,113.408478
广东省广州市天河区天河新作,广东省,广州市,天河区,23.135639,-1,113.332497
广东省广州市天河区新塘街华观路云城米酷,广东省,广州市,天河区,23.16637,-1,113.406831
广东省广州市天河区棠下荷光广州锦顺酒店,广东省,广州市,天河区,23.13146,-1,113.375183
广东省广州市天河区棠下街华景新城陶然庭苑,广东省,广州市,天河区,23.13787,-1,113.3614
广东省广州市天河区棠下街枫叶路棠雅苑,广东省,广州市,天河区,23.13464,-1,113.367973
广东省广州市天河区棠下街道棠石路新景苑小区,广东省,广州市,天河区,23.124331,-1,113.369438
广东省广州市天河区海景花园,广东省,广州市,天河区,23.123301,-1,113.366653
广东省广州市天河区猎德街猎德复建房,广东省,广州市,天河区,23.113651,-1,113.335274
广东省广州市天河区石牌街暨南大学羊城苑,广东省,广州市,天河区,23.1312,-1,113.3474
广东省广州市天河区车陂街林南文化酒店,广东省,广州市,天河区,23.124229,-1,113.396828
广东省广州市天河区兴华街道粤垦路金燕花苑,广东省,广州市,天河区,23.15329,-1,113.3334
广东省广州市天河区冼村街道珠光新城御景,广东省,广州市,天河区,23.116159,-1,113.346802
广东省广州市天河区中南街道南丫村,广东省,广州市,天河区,23.048346,-1,113.224411
广东省广州市天河区棠下街道锦顺酒店,广东省,广州市,天河区,23.13146,-1,113.375183
广东省广州市天河区车陂街道城市假日园,广东省,广州市,天河区,23.125919,-1,113.40387
广东省广州市天河区兴华街道沙太南路,广东省,广州市,天河区,23.16333,-1,113.323479
广东省广州市天河区冼村街道潭村珠光新城御景,广东省,广州市,天河区,23.116159,-1,113.346802
广东省广州市天河区棠下街道棠德花苑,广东省,广州市,天河区,23.133438,-1,113.383559
广东省广州市海珠区凤阳街道和平家园,广东省,广州市,海珠区,23.086691,-1,113.31469
广东省广州市海珠区南华西街道同福西路,广东省,广州市,海珠区,23.1028,-1,113.254318
广东省广州市海珠区南石头街道保利花园,广东省,广州市,海珠区,23.07091,-1,113.273849
广东省广州市海珠区新港街国际轻纺城双子星城星辰轩,广东省,广州市,海珠区,23.089294,-1,113.298899
广东省广州市海珠区江海街石榴岗路,广东省,广州市,海珠区,23.08781,-1,113.3369
广东省广州市海珠区锦江之星,广东省,广州市,海珠区,23.079889,-1,113.278633
广东省广州市海珠区革新路船舶太古酒店,广东省,广州市,海珠区,23.089569,-1,113.25473
广东省广州市海珠区龙凤街道金沙路富力现代,广东省,广州市,海珠区,23.09087,-1,113.258217
广东省广州市海珠区江悦酒店,广东省,广州市,海珠区,23.102831,-1,113.246803
广东省广州市海珠区江海街道大塘东边街,广东省,广州市,海珠区,23.08475,-1,113.33124
广东省广州市海珠区滨江街道沙地直街,广东省,广州市,海珠区,23.108385,-1,113.282532
广东省广州市海珠区琶洲街道琶洲新村,广东省,广州市,海珠区,23.10041,-1,113.38181
广东省广州市海珠区赤岗街石榴岗路,广东省,广州市,海珠区,23.08781,-1,113.3369
广东省广州市海珠区赤岗街道纵横公寓,广东省,广州市,海珠区,23.095711,-1,113.330078
广东省广州市海珠区瑞宝街道金碧花园,广东省,广州市,海珠区,23.068744,-1,113.287585
广东省广州市海珠区龙凤街道凤凰二街,广东省,广州市,海珠区,23.091709,-1,113.25882
广东省广州市海珠区南华西街道万科华庭,广东省,广州市,海珠区,23.10318,-1,113.253197
广东省广州市海珠区昌岗街道细岗路,广东省,广州市,海珠区,23.09194,-1,113.2808
广东省广州市海珠区昌岗街道金盛大厦,广东省,广州市,海珠区,23.090321,-1,113.275223
广东省广州市海珠区江南中街道南村聚源八巷,广东省,广州市,海珠区,23.104668,-1,113.268036
广东省广州市海珠区龙凤街道江南乐居苑,广东省,广州市,海珠区,23.095329,-1,113.26075
广东省广州市海珠区华洲街道土华洪福新村,广东省,广州市,海珠区,23.070265,-1,113.35849
广东省广州市海珠区赤岗街道影城花苑,广东省,广州市,海珠区,23.095736,-1,113.318741
广东省广州市海珠区凤阳街道泰沙路马岗顶,广东省,广州市,海珠区,23.080151,-1,113.28492
广东省广州市海珠区南洲街道上冲桥南新街,广东省,广州市,海珠区,23.08063,-1,113.32269
广东省广州市海珠区新港街道中大浦园,广东省,广州市,海珠区,23.10005,-1,113.295288
广东省广州市海珠区琶洲街道阅江路,广东省,广州市,海珠区,23.10784,-1,113.339203
广东省广州市海珠区瑞宝街道瑞源街二十巷,广东省,广州市,海珠区,23.07865,-1,113.29475
广东省广州市海珠区龙凤街道革新路银山尚橙小区,广东省,广州市,海珠区,23.0945,-1,113.253639
广东省广州市海珠区江南中街道前进路聚龙新街,广东省,广州市,海珠区,23.098074,-1,113.278091
广东省广州市海珠区琶洲街道阅江中路保利天悦,广东省,广州市,海珠区,23.1026,-1,113.3796
广东省广州市海珠区江海街道台涌村新街,广东省,广州市,海珠区,23.083704,-1,113.3426
广东省广州市海珠区沙园街道水榕路中海橡园,广东省,广州市,海珠区,23.08857,-1,113.25901
广东省广州市海珠区南石头街鸡春岗新街,广东省,广州市,海珠区,23.077639,-1,113.263688
广东省广州市海珠区沙园街昌岗中路,广东省,广州市,海珠区,23.085174,-1,113.266518
广东省广州市海珠区瑞宝街道瑞源街,广东省,广州市,海珠区,23.078823,-1,113.294097
广东省广州市海珠区赤岗街道石榴岗路,广东省,广州市,海珠区,23.08277,-1,113.343107
广东省广州市番禺区南村镇雅居乐北苑,广东省,广州市,番禺区,23.0252,-1,113.383362
广东省广州市番禺区名伦花园,广东省,广州市,番禺区,23.011339,-1,113.329849
广东省广州市番禺区大龙街尚东尚筑,广东省,广州市,番禺区,22.938204,-1,113.404831
广东省广州市番禺区市桥街道维也纳石桥中心店,广东省,广州市,番禺区,22.954327,-1,113.364168
广东省广州市番禺区星河湾半岛,广东省,广州市,番禺区,23.030411,-1,113.352707
广东省广州市番禺区石楼镇亚运城媒体村,广东省,广州市,番禺区,22.944351,-1,113.473656
广东省广州市番禺区碧桂园东苑倚翠路,广东省,广州市,番禺区,22.9526,-1,113.286331
广东省广州市番禺区祈福新村祈福名都,广东省,广州市,番禺区,22.97246,-1,113.334442
广东省广州市番禺区金山谷花园,广东省,广州市,番禺区,22.977591,-1,113.34697
广东省广州市番禺区桥南街道陈涌村,广东省,广州市,番禺区,22.918659,-1,113.372078
广东省广州市番禺区甘棠村东环街大社坊中心街,广东省,广州市,番禺区,22.957781,-1,113.378098
广东省广州市番禺区市桥街丽柏酒店,广东省,广州市,番禺区,22.94615,-1,113.368927
广东省广州市番禺区钟村街道祈福缤纷汇,广东省,广州市,番禺区,22.970449,-1,113.333458
广东省广州市番禺区大龙街道东湖洲花园,广东省,广州市,番禺区,22.9277,-1,113.418259
广东省广州市番禺区未来域,广东省,广州市,番禺区,22.978094,-1,113.310547
广东省广州市番禺区沙湾街道荷景一区,广东省,广州市,番禺区,22.903303,-1,113.34481
广东省广州市番禺区祈福新村活力花园,广东省,广州市,番禺区,22.969721,-1,113.328949
广东省广州市番禺区钟村街道鸿福路,广东省,广州市,番禺区,22.967869,-1,113.329887
广东省广州市番禺区市桥街道仓边大街,广东省,广州市,番禺区,22.946434,-1,113.367707
广东省广州市番禺区钟村街道祈福名都,广东省,广州市,番禺区,22.964712,-1,113.322364
广东省广州市白云区人和镇清河渡头街,广东省,广州市,白云区,23.291027,-1,113.265963
广东省广州市白云区人和镇西成路蔚徕酒店,广东省,广州市,白云区,23.341726,-1,113.293833
广东省广州市白云区保利西海岸江海花园,广东省,广州市,白云区,23.171919,-1,113.209361
广东省广州市白云区元邦航空家园,广东省,广州市,白云区,23.204926,-1,113.25914
广东省广州市白云区南湖高尔夫公寓,广东省,广州市,白云区,23.226513,-1,113.328398
广东省广州市白云区南航明珠酒店,广东省,广州市,白云区,23.37195,-1,113.297417
广东省广州市白云区同景东街,广东省,广州市,白云区,23.15594,-1,113.2341
广东省广州市白云区心谊路,广东省,广州市,白云区,23.17091,-1,113.256
广东省广州市白云区时代玫瑰园,广东省,广州市,白云区,23.22481,-1,113.2868
广东省广州市白云区景云路景云居,广东省,广州市,白云区,23.16374,-1,113.277382
广东省广州市白云区梅滨大厦,广东省,广州市,白云区,23.179939,-1,113.325623
广东省广州市白云区棠景街国强北街,广东省,广州市,白云区,23.15792,-1,113.27324
广东省广州市白云区棠景街道岗贝路贝丽花园,广东省,广州市,白云区,23.17975,-1,113.2547
广东省广州市白云区江高镇大田村海口直街,广东省,广州市,白云区,23.290867,-1,113.23448
广东省广州市白云区石井街道石潭路,广东省,广州市,白云区,23.195539,-1,113.23481
广东省广州市白云区金沙洲保利西子湾,广东省,广州市,白云区,23.148121,-1,113.210663
广东省广州市白云区鹤龙街联边彭西一街,广东省,广州市,白云区,23.23057,-1,113.2763
广东省广州市白云区鹤龙街道乐得花园,广东省,广州市,白云区,23.22261,-1,113.2753
广东省广州市白云区鹤龙街道黄边安怀里,广东省,广州市,白云区,23.21464,-1,113.270767
广东省广州市白云区麒麟新村三街二巷,广东省,广州市,白云区,23.18636,-1,113.337
广东省广州市白云区黄石花园,广东省,广州市,白云区,23.20441,-1,113.2672
广东省广州市白云区黄石街二街,广东省,广州市,白云区,23.15792,-1,113.27324
广东省广州市白云区黄石街白云尚城,广东省,广州市,白云区,23.21342,-1,113.2852
广东省广州市白云区三元里街道棠下三官后街,广东省,广州市,白云区,23.1733,-1,113.253189
广东省广州市白云区京溪街道广州大道北,广东省,广州市,白云区,23.18165,-1,113.321602
广东省广州市白云区永平街道永泰中街,广东省,广州市,白云区,23.18625,-1,113.266
广东省广州市白云区棠景街道乐嘉路,广东省,广州市,白云区,23.16799,-1,113.2575
广东省广州市白云区江夏流铁岗,广东省,广州市,白云区,23.21252,-1,113.2786
广东省广州市白云区石井街道玖兴公寓,广东省,广州市,白云区,23.18222,-1,113.236481
广东省广州市白云区同德街道同嘉路,广东省,广州市,白云区,23.159559,-1,113.232803
广东省广州市白云区金沙街道金沙洲中海金洲馨园,广东省,广州市,白云区,23.14747,-1,113.205299
广东省广州市白云区鹤龙街道联边彭西一街,广东省,广州市,白云区,23.23057,-1,113.2763
广东省广州市白云区同和街道石桥七巷,广东省,广州市,白云区,23.197406,-1,113.325871
广东省广州市白云区同和街道同沙路云东小区,广东省,广州市,白云区,23.19614,-1,113.327293
广东省广州市白云区同德街道西槎路同景东街,广东省,广州市,白云区,23.167377,-1,113.235226
广东省广州市白云区太和镇黄庄万科蓝山,广东省,广州市,白云区,23.391251,-1,113.34095
广东省广州市白云区永平街道百顺北路,广东省,广州市,白云区,23.236134,-1,113.29641
广东省广州市白云区江高镇珠江村新贝路,广东省,广州市,白云区,23.253947,-1,113.213668
广东省广州市花都区新华街宾馆新村,广东省,广州市,花都区,23.38225,-1,113.21106
广东省广州市花都区新华街锦尚蓬莱,广东省,广州市,花都区,23.390711,-1,113.236931
广东省广州市花都区新雅街道合和新城锦华,广东省,广州市,花都区,23.37289,-1,113.256203
广东省广州市花都区狮岭镇合成村,广东省,广州市,花都区,23.45462,-1,113.181427
广东省广州市花都区秀全街雅宝新城英伦世家,广东省,广州市,花都区,23.426645,-1,113.186249
广东省广州市花都区自由人花园2期,广东省,广州市,花都区,23.342855,-1,113.220055
广东省广州市花都区花城街道南航花园,广东省,广州市,花都区,23.402094,-1,113.232307
广东省广州市花都区花城街道长岗村,广东省,广州市,花都区,23.437617,-1,113.225803
广东省广州市花都区新华街道景雅轩小区,广东省,广州市,花都区,23.398109,-1,113.205872
广东省广州市花都区合和新城,广东省,广州市,花都区,23.37289,-1,113.256203
广东省广州市花都区沙芒南5巷,广东省,广州市,花都区,23.403902,-1,113.213443
广东省广州市花都区新华街道建设北路,广东省,广州市,花都区,23.405479,-1,113.206978
广东省广州市花城街道茶园路,广东省,广州市,花都区,23.388876,-1,113.214808
广东省广州市荔湾区中海花湾,广东省,广州市,荔湾区,23.068319,-1,113.236557
广东省广州市荔湾区华林街道光复中路丽枫酒店长寿东路店,广东省,广州市,荔湾区,23.118036,-1,113.251942
广东省广州市荔湾区华林街道文昌南路,广东省,广州市,荔湾区,23.11524,-1,113.244522
广东省广州市荔湾区石围塘街凯粤湾,广东省,广州市,荔湾区,23.115641,-1,113.214706
广东省广州市荔湾区金花街道芦荻街,广东省,广州市,荔湾区,23.127632,-1,113.251465
广东省广州市荔湾区多宝街道御景壹号,广东省,广州市,荔湾区,23.109541,-1,113.235573
广东省广州市荔湾区花地街道恒荔湾畔,广东省,广州市,荔湾区,23.101311,-1,113.231979
广东省广州市荔湾区石围塘街道兴东路,广东省,广州市,荔湾区,23.1086,-1,113.216
广东省广州市荔湾区金花街道龙津中路,广东省,广州市,荔湾区,23.12429,-1,113.243599
广东省广州市荔湾区冲口街道招村南胜九巷,广东省,广州市,荔湾区,23.08655,-1,113.2389
广东省广州市越秀区人民街道万艺维福顿公寓,广东省,广州市,越秀区,23.115629,-1,113.267288
广东省广州市越秀区农林下路,广东省,广州市,越秀区,23.12897,-1,113.2974
广东省广州市越秀区梅花村街金羊花园,广东省,广州市,越秀区,23.12674,-1,113.309349
广东省广州市越秀区水均岗,广东省,广州市,越秀区,23.1316,-1,113.3061
广东省广州市越秀区水荫路,广东省,广州市,越秀区,23.14509,-1,113.3106
广东省广州市越秀区淘金东路御龙庭,广东省,广州市,越秀区,23.14267,-1,113.295326
广东省广州市越秀区淘金路,广东省,广州市,越秀区,23.13896,-1,113.2876
广东省广州市越秀区黄花岗街东风东路,广东省,广州市,越秀区,23.12901,-1,113.2668
广东省广州市越秀区人民街道回龙路,广东省,广州市,越秀区,23.11598,-1,113.267609
广东省广州市越秀区侨光路万艺广场,广东省,广州市,越秀区,23.116051,-1,113.267357
广东省广州市越秀区光塔街解放中路,广东省,广州市,越秀区,23.121481,-1,113.262428
广东省广州市越秀区大东街道东川路,广东省,广州市,越秀区,23.12455,-1,113.286613
广东省广州市越秀区梅花村街道共和大街,广东省,广州市,越秀区,23.12486,-1,113.3076
广东省广州市越秀区流花街道,广东省,广州市,越秀区,23.14809,-1,113.262894
广东省广州市越秀区人民街道大新路小新街,广东省,广州市,越秀区,23.1164,-1,113.2611
广东省广州市越秀区流花街道武汉宾馆,广东省,广州市,越秀区,23.146099,-1,113.254059
广东省广州市越秀区人民街道大新路,广东省,广州市,越秀区,23.11504,-1,113.254143
广东省广州市越秀区北京街道起义路,广东省,广州市,越秀区,23.12159,-1,113.2668
广东省广州市越秀区登峰街道下塘宝汉直街,广东省,广州市,越秀区,23.1418,-1,113.2749
广东省广州市越秀区光塔街道起义路,广东省,广州市,越秀区,23.115743,-1,113.265334
广东省广州市黄埔区云埔街万科金色梦想,广东省,广州市,黄埔区,23.16321,-1,113.529778
广东省广州市黄埔区云埔街道中海誉城,广东省,广州市,黄埔区,23.16194,-1,113.5263
广东省广州市黄埔区南岗街广海路亨元花园,广东省,广州市,黄埔区,23.0947,-1,113.5355
广东省广州市黄埔区夏港街蓝玉五街,广东省,广州市,黄埔区,23.18139,-1,113.48067
广东省广州市黄埔区大沙街丰乐北路君和名城,广东省,广州市,黄埔区,23.10795,-1,113.453697
广东省广州市黄埔区联和街保利林语山庄芳林二街,广东省,广州市,黄埔区,23.182159,-1,113.454651
广东省广州市黄埔区金碧世纪花园,广东省,广州市,黄埔区,23.11397,-1,113.4292
广东省广州市黄埔区龙湖街万科幸福誉,广东省,广州市,黄埔区,23.33074,-1,113.541656
广东省广州市黄埔区云埔街道东荟城,广东省,广州市,黄埔区,23.15906,-1,113.5036
广东省广州市黄埔区联和街道岭南山畔,广东省,广州市,黄埔区,23.177549,-1,113.451691
广东省广州市黄埔区云埔街道万科金色梦想,广东省,广州市,黄埔区,23.16321,-1,113.529778
广东省广州市黄埔区九龙镇万科幸福誉,广东省,广州市,黄埔区,23.33074,-1,113.541656
广东省广州市黄埔区长岭街道萝岗和苑,广东省,广州市,黄埔区,23.187667,-1,113.477274
广东省梅州市兴宁市新陂镇三新村,广东省,梅州市,兴宁市,24.156179,1,115.675461
广东省梅州市兴宁市新陂镇圩镇,广东省,梅州市,兴宁市,24.155041,1,115.6968
广东省梅州市兴宁市水口镇光夏村,广东省,梅州市,兴宁市,23.977671,3,115.946709
广东省梅州市兴宁市罗浮镇蕉坑村,广东省,梅州市,兴宁市,24.597309,2,115.575623
广东省梅州市兴宁市黄槐镇西二村,广东省,梅州市,兴宁市,24.454861,1,115.765877
广东省梅州市兴宁市坭陂镇理中村,广东省,梅州市,兴宁市,24.079294,1,115.853685
广东省梅州市大埔县高陂镇桃花村,广东省,梅州市,大埔县,24.14448,1,116.576881
广东省梅州市平远县大柘镇河岭村,广东省,梅州市,平远县,24.59185,1,115.90712
广东省梅州市梅县区梅县碧桂园,广东省,梅州市,梅县区,24.26651,1,116.063492
广东省梅州市梅县区梅州西站高铁站公寓,广东省,梅州市,梅县区,24.250568,1,116.047806
广东省梅州市蕉岭县新铺镇中心街,广东省,梅州市,蕉岭县,24.51697,1,116.135292
广东省梅州市蕉岭县新铺镇同福村,广东省,梅州市,蕉岭县,24.53178,1,116.124329
广东省梅州市梅江区金山街道办赤岌二路烟厂宿舍,广东省,梅州市,梅江区,24.31275,1,116.133057
广东省梅州市五华县华城镇兴一村,广东省,梅州市,五华县,24.027182,1,115.618121
广东省汕尾市陆丰市东海镇金华花园,广东省,汕尾市,陆丰市,22.946421,-1,115.626251
广东省汕尾市陆丰市东海镇,广东省,汕尾市,陆丰市,22.94146,2,115.640182
广东省汕尾市陆河县新田镇,广东省,汕尾市,陆河县,23.18531,-1,115.559853
广东省江门市北新区海逸城邦,广东省,江门市,北新区,22.626659,1,113.079559
广东省江门市鹤山市雅瑶镇龙翔花园,广东省,江门市,鹤山市,22.72382,1,112.997414
广东省江门市鹤山市沙坪街道保利花园,广东省,江门市,鹤山市,22.767079,2,112.976975
广东省江门市开平市金鸡镇,广东省,江门市,开平市,22.15811,1,112.489288
广东省江门市新会区大鳌镇东升村西宁里289号,广东省,江门市,新会区,22.485402,1,113.211584
广东省江门市新会区大鳌镇东升村,广东省,江门市,新会区,22.486031,1,113.212257
广东省江门市江海区江海一路2号,广东省,江门市,江海区,22.57457,3,113.10019
广东省江门市江海区海逸华庭逸峰轩,广东省,江门市,江海区,22.595301,3,113.164421
广东省江门市江海区礼乐街道礼乐三路乐陶苑,广东省,江门市,江海区,22.533461,1,113.08577
广东省江门市蓬江区环市街道星汇名庭天璇2栋,广东省,江门市,蓬江区,22.590389,1,113.079491
广东省江门市蓬江区棠下镇建棠路达进豪庭,广东省,江门市,蓬江区,22.67827,2,113.026649
广东省江门市蓬江区环市街道星汇名庭,广东省,江门市,蓬江区,22.62797,1,113.085632
广东省江门市台山市台城街道龙舟路16号,广东省,江门市,台山市,22.251316,1,112.782821
广东省江门市恩平市恩城街道凤山社区凤山路,广东省,江门市,恩平市,22.183728,1,112.298136
广东省深圳市光明区公明街道振明路南庄合众豪庭后面三巷,广东省,深圳市,光明区,22.773359,-1,113.907867
广东省深圳市光明区宏发上域,广东省,深圳市,光明区,22.781679,-1,113.907127
广东省深圳市光明区新陂头村新美一村,广东省,深圳市,光明区,22.799279,-1,113.942168
广东省深圳市光明区薯田埔村福南路华业苑,广东省,深圳市,光明区,22.779659,-1,113.874718
广东省深圳市光明区传麒山,广东省,深圳市,光明区,22.74365,-1,113.942863
广东省深圳市光明区横岭新村,广东省,深圳市,光明区,22.778328,-1,113.883728
广东省深圳市光明区玉律村一区,广东省,深圳市,光明区,22.715294,-1,113.890236
广东省深圳市南山区中洲万豪酒店,广东省,深圳市,南山区,22.517429,-1,113.933273
广东省深圳市南山区丽山路西湖林语,广东省,深圳市,南山区,22.59273,-1,113.96534
广东省深圳市南山区佳兆业前海广场,广东省,深圳市,南山区,22.494535,-1,113.886284
广东省深圳市南山区半岛城邦,广东省,深圳市,南山区,22.480164,-1,113.933495
广东省深圳市南山区华侨城香山美墅,广东省,深圳市,南山区,22.550728,-1,113.969803
广东省深圳市南山区南头街道麒麟花园,广东省,深圳市,南山区,22.544729,-1,113.93055
广东省深圳市南山区南山街道友邻公寓,广东省,深圳市,南山区,22.531321,-1,113.929703
广东省深圳市南山区南山街道学府花园,广东省,深圳市,南山区,22.525787,-1,113.92627
广东省深圳市南山区南山街道现代城华庭,广东省,深圳市,南山区,22.517061,-1,113.924423
广东省深圳市南山区南山街道阳光棕榈园,广东省,深圳市,南山区,22.526039,-1,113.913742
广东省深圳市南山区后海雅园,广东省,深圳市,南山区,22.493521,-1,113.93605
广东省深圳市南山区大冲宿禾服务式公寓,广东省,深圳市,南山区,22.541685,-1,113.95211
广东省深圳市南山区宝能太古城北区,广东省,深圳市,南山区,22.50119,-1,113.93999
广东省深圳市南山区桑泰丹华府三期,广东省,深圳市,南山区,22.58746,-1,113.96601
广东省深圳市南山区沙河街道华侨城东组团小区,广东省,深圳市,南山区,22.537041,-1,113.981598
广东省深圳市南山区沙河街道沙河东路世纪村,广东省,深圳市,南山区,22.53355,-1,113.965652
广东省深圳市南山区海岸明珠,广东省,深圳市,南山区,22.515551,-1,113.931519
广东省深圳市南山区白石洲新堂花园,广东省,深圳市,南山区,22.547001,-1,113.971176
广东省深圳市南山区科技园华润城,广东省,深圳市,南山区,22.540754,-1,113.953789
广东省深圳市南山区蓝月湾畔,广东省,深圳市,南山区,22.503731,-1,113.935577
广东省深圳市南山区蔚蓝海岸,广东省,深圳市,南山区,22.508051,-1,113.935242
广东省深圳市南山区蛇口街道东角头港湾花园,广东省,深圳市,南山区,22.486876,-1,113.934692
广东省深圳市南山区蛇口街道四海公寓,广东省,深圳市,南山区,22.494116,-1,113.931458
广东省深圳市南山区蛇口街道海境界,广东省,深圳市,南山区,22.492413,-1,113.936707
广东省深圳市南山区蛇口街道豪方泽公寓,广东省,深圳市,南山区,22.488628,-1,113.935101
广东省深圳市南山区西丽街道德意名居,广东省,深圳市,南山区,22.590611,-1,113.961823
广东省深圳市南山区西丽阳光工业区,广东省,深圳市,南山区,22.633181,-1,113.933372
广东省深圳市南山区西海湾花园,广东省,深圳市,南山区,22.51424,-1,113.930679
广东省深圳市南山区锦绣花园,广东省,深圳市,南山区,22.53446,-1,113.978653
广东省深圳市南山区阳光华艺大厦B座,广东省,深圳市,南山区,22.52488,-1,113.92842
广东省深圳市南山区雍景轩赏湖阁,广东省,深圳市,南山区,22.494562,-1,113.927475
广东省深圳市南山区登良花园,广东省,深圳市,南山区,22.51383,-1,113.920219
广东省深圳市南山区白石洲东四坊,广东省,深圳市,南山区,22.532103,-1,113.970528
广东省深圳市南山区南光花园,广东省,深圳市,南山区,22.51906,-1,113.924088
广东省深圳市南山区大冲新城花园,广东省,深圳市,南山区,22.54257,-1,113.950813
广东省深圳市南山区恒立心海湾花园,广东省,深圳市,南山区,22.500971,-1,113.895149
广东省深圳市南山区东方花园,广东省,深圳市,南山区,22.532591,-1,113.979698
广东省深圳市南山区海景嘉途酒店,广东省,深圳市,南山区,22.534615,-1,113.986588
广东省深圳市南山区海淮路海天一路交汇工地生活区,广东省,深圳市,南山区,22.524779,-1,113.94438
广东省深圳市南山区诺德假日花园,广东省,深圳市,南山区,22.510281,-1,113.90432
广东省深圳市南山区雷公岭村,广东省,深圳市,南山区,22.49226,-1,113.926979
中国广东省深圳市南山区东滨路4096号鸿丰大酒店,广东省,深圳市,南山区,22.51224,-1,113.91227
广东省深圳市南山区万科云城一期,广东省,深圳市,南山区,22.573192,-1,113.941285
广东省深圳市南山区大磡1村,广东省,深圳市,南山区,22.622089,-1,113.975804
广东省深圳市南山区水木丹华,广东省,深圳市,南山区,22.591619,-1,113.989357
广东省深圳市南山区留仙大道4088号博林天瑞1期西北方向80米,广东省,深圳市,南山区,22.583543,-1,113.972024
广东省深圳市南山区天鹅湖花园,广东省,深圳市,南山区,22.547045,-1,113.982986
广东省深圳市南山区留仙居南A区,广东省,深圳市,南山区,22.58358,-1,113.948799
广东省深圳市南山区招商街道沿山路63号,广东省,深圳市,南山区,22.499688,-1,113.918779
广东省深圳市南山区水木华庭,广东省,深圳市,南山区,22.56246,-1,113.98024
广东省深圳市南山区西丽塘朗城,广东省,深圳市,南山区,22.589173,-1,114.000555
广东省深圳市南山区艺华花园,广东省,深圳市,南山区,22.547976,-1,113.931427
广东省深圳市南山区珠光村西区,广东省,深圳市,南山区,22.571978,-1,113.960306
广东省深圳市南山区汉庭优佳酒店（西丽地铁站店）,广东省,深圳市,南山区,22.578811,-1,113.954748
广东省深圳市南山区御景峰,广东省,深圳市,南山区,22.597748,-1,114.011943
广东省深圳市南山区花园城一期,广东省,深圳市,南山区,22.503281,-1,113.922493
广东省深圳市坪山区坪山街道万科金域缇香,广东省,深圳市,坪山区,22.7078,-1,114.341583
广东省深圳市坪山区坪山街道易林源酒店,广东省,深圳市,坪山区,22.69084,-1,114.346321
广东省深圳市坪山区龙田街道东城大厦维也纳酒店,广东省,深圳市,坪山区,22.71496,-1,114.394333
广东省深圳市坪山区龙田街道金茂园酒店,广东省,深圳市,坪山区,22.700554,-1,114.356522
广东省深圳市坪山区东纵路6-3号,广东省,深圳市,坪山区,22.68891,-1,114.37582
广东省深圳市坪山区汤坑社区东方丽园,广东省,深圳市,坪山区,22.667549,-1,114.315521
广东省深圳市大鹏新区万豪酒店,广东省,深圳市,大鹏新区,22.760189,-1,113.859016
广东省深圳市宝安区万象新天2期,广东省,深圳市,宝安区,22.603428,-1,113.850861
广东省深圳市宝安区前海铂寓,广东省,深圳市,宝安区,22.554941,-1,113.862267
广东省深圳市宝安区宏发世纪城,广东省,深圳市,宝安区,22.67898,-1,113.94603
广东省深圳市宝安区宝安大道与裕安一路交汇处卡罗社区,广东省,深圳市,宝安区,22.56165,-1,113.88855
广东省深圳市宝安区新安街道35小区安乐花园,广东省,深圳市,宝安区,22.58168,-1,113.898033
广东省深圳市宝安区新安街道甲岸村,广东省,深圳市,宝安区,22.56167,-1,113.904121
广东省深圳市宝安区星曜名城B栋,广东省,深圳市,宝安区,22.692051,-1,113.921227
广东省深圳市宝安区松岗街道碧头社区华都公寓,广东省,深圳市,宝安区,22.782248,-1,113.813004
广东省深圳市宝安区桃源居,广东省,深圳市,宝安区,22.614513,-1,113.86441
广东省深圳市宝安区泰华商业城,广东省,深圳市,宝安区,22.568226,-1,113.904106
广东省深圳市宝安区满京华云著花园,广东省,深圳市,宝安区,22.784412,-1,113.832664
广东省深圳市宝安区石岩街道伊隆达工业园,广东省,深圳市,宝安区,22.693546,-1,113.942085
广东省深圳市宝安区福永街道星航华府,广东省,深圳市,宝安区,22.64348,-1,113.83242
广东省深圳市宝安区航城街道南航明珠花园,广东省,深圳市,宝安区,22.60577,-1,113.842323
广东省深圳市宝安区塘尾社区蚝二佳仕泰科技园宿舍,广东省,深圳市,宝安区,22.703049,-1,113.784256
广东省深圳市宝安区松茂·御龙湾,广东省,深圳市,宝安区,22.573915,-1,113.853287
广东省深圳市宝安区海华社区自由北小区,广东省,深圳市,宝安区,22.56814,-1,113.882988
广东省深圳市宝安区深航幸福花园,广东省,深圳市,宝安区,22.69924,-1,113.811974
广东省深圳市宝安区灵芝新村新安街道,广东省,深圳市,宝安区,22.568264,-1,113.895779
广东省深圳市宝安区西乡街道我们家公寓（海湾家2号楼）,广东省,深圳市,宝安区,22.579014,-1,113.859503
广东省深圳市宝安区明玉路11号花样年花郡,广东省,深圳市,宝安区,22.56447,-1,113.88235
广东省深圳市宝安区荣泰园,广东省,深圳市,宝安区,22.724609,-1,113.823189
广东省深圳市宝安区一尚领航优品酒店,广东省,深圳市,宝安区,22.608862,-1,113.848557
广东省深圳市宝安区松新石岗大楼,广东省,深圳市,宝安区,22.766611,-1,113.840485
广东省深圳市宝安区福中福幸福海岸,广东省,深圳市,宝安区,22.559731,-1,113.878502
广东省深圳市宝安区鸿景园,广东省,深圳市,宝安区,22.5744,-1,113.890671
广东省深圳市宝安区怀德公元,广东省,深圳市,宝安区,22.66877,-1,113.827536
广东省深圳市宝安区永丰社区六区,广东省,深圳市,宝安区,22.57254,-1,113.86689
广东省深圳市宝安区金港华庭,广东省,深圳市,宝安区,22.582241,-1,113.86132
广东省深圳市宝安区丽枫酒店（深圳海雅缤纷城店）,广东省,深圳市,宝安区,22.55979,-1,113.906097
广东省深圳市宝安区松岗街道红星村温屋,广东省,深圳市,宝安区,22.766277,-1,113.836357
广东省深圳市宝安区金泓凯旋城,广东省,深圳市,宝安区,22.548281,-1,113.897789
广东省深圳市宝安区东方社区上头田新村,广东省,深圳市,宝安区,22.758715,-1,113.846001
广东省深圳市宝安区沙井西荟城,广东省,深圳市,宝安区,22.732635,-1,113.816216
广东省深圳市宝安区潭头社区四村,广东省,深圳市,宝安区,22.749622,-1,113.847058
广东省深圳市盐田区沙头角街道上东湾,广东省,深圳市,盐田区,22.549728,-1,114.228935
广东省深圳市盐田区京基洲际度假酒店,广东省,深圳市,盐田区,22.59757,-1,114.314651
广东省深圳市盐田区东海丽景花园,广东省,深圳市,盐田区,22.59,-1,114.25853
广东省深圳市福田区上步中路盛夏公寓,广东省,深圳市,福田区,22.547713,-1,114.095298
广东省深圳市福田区上沙东村八巷,广东省,深圳市,福田区,22.521173,-1,114.032578
广东省深圳市福田区侨香村,广东省,深圳市,福田区,22.552641,-1,114.013229
广东省深圳市福田区八卦四路意馨居,广东省,深圳市,福田区,22.564657,-1,114.101181
广东省深圳市福田区华强北街道航苑大厦西座,广东省,深圳市,福田区,22.544081,-1,114.083
广东省深圳市福田区南园街道南园路232号工行公寓,广东省,深圳市,福田区,22.53822,-1,114.08778
广东省深圳市福田区园岭新村,广东省,深圳市,福田区,22.553909,-1,114.10067
广东省深圳市福田区新洲四街香江西苑,广东省,深圳市,福田区,22.523621,-1,114.041557
广东省深圳市福田区景田天健花园,广东省,深圳市,福田区,22.556971,-1,114.033768
广东省深圳市福田区梅东三路半山御景,广东省,深圳市,福田区,22.572861,-1,114.070602
广东省深圳市福田区沙嘴村一坊,广东省,深圳市,福田区,22.518318,-1,114.038002
广东省深圳市福田区益田花园,广东省,深圳市,福田区,22.513109,-1,114.05751
广东省深圳市福田区益田花园豪园居,广东省,深圳市,福田区,22.514774,-1,114.057045
广东省深圳市福田区碧华庭居翠园,广东省,深圳市,福田区,22.563629,-1,114.049309
广东省深圳市福田区福保街道明月花园,广东省,深圳市,福田区,22.52442,-1,114.055222
广东省深圳市福田区福保街道红树福苑,广东省,深圳市,福田区,22.509596,-1,114.045502
广东省深圳市福田区福华新村,广东省,深圳市,福田区,22.533541,-1,114.071136
广东省深圳市福田区福华路维也纳酒店,广东省,深圳市,福田区,22.526791,-1,114.064377
广东省深圳市福田区福港路西阳光城市,广东省,深圳市,福田区,22.523195,-1,114.07077
广东省深圳市福田区竹子林越海家园依山阁,广东省,深圳市,福田区,22.535191,-1,114.006783
广东省深圳市福田区笔架山公园员工宿舍,广东省,深圳市,福田区,22.56447,-1,114.081879
广东省深圳市福田区莲花北村,广东省,深圳市,福田区,22.558821,-1,114.05069
广东省深圳市福田区莲花街道景蜜村,广东省,深圳市,福田区,22.55513,-1,114.038521
广东省深圳市福田区莲花街道福莲花园,广东省,深圳市,福田区,22.54575,-1,114.069519
广东省深圳市福田区越众小区,广东省,深圳市,福田区,22.53652,-1,114.012108
广东省深圳市福田区香蜜新村东区,广东省,深圳市,福田区,22.547359,-1,114.040428
广东省深圳市福田区益田村,广东省,深圳市,福田区,22.51433,-1,114.0513
广东省深圳市福田区下梅林河背村,广东省,深圳市,福田区,22.564041,-1,114.042915
广东省深圳市福田区东海国际公寓,广东省,深圳市,福田区,22.53664,-1,114.019501
广东省深圳市福田区园中花园,广东省,深圳市,福田区,22.55221,-1,114.098839
广东省深圳市福田区新世界伟瑞酒店,广东省,深圳市,福田区,22.565844,-1,114.053093
广东省深圳市福田区景田北景龙大厦,广东省,深圳市,福田区,22.558098,-1,114.044556
广东省深圳市福田区梅林街道兰江山第,广东省,深圳市,福田区,22.564943,-1,114.013641
广东省深圳市福田区福滨新村,广东省,深圳市,福田区,22.530729,-1,114.079048
广东省深圳市福田区福祥街2号1栋,广东省,深圳市,福田区,22.5323,-1,114.08318
广东省深圳市福田区香山美树苑,广东省,深圳市,福田区,22.540251,-1,114.014557
广东省深圳市福田区御锦公馆,广东省,深圳市,福田区,22.570845,-1,114.058052
广东省深圳市福田区香格里拉大酒店,广东省,深圳市,福田区,22.536222,-1,114.05703
广东省深圳市福田区下沙村四坊,广东省,深圳市,福田区,22.527861,-1,114.023521
广东省深圳市福田区新洲花园,广东省,深圳市,福田区,22.526939,-1,114.048279
广东省深圳市福田区金地香蜜山,广东省,深圳市,福田区,22.553909,-1,114.017883
广东省深圳市福田区梅林山水居,广东省,深圳市,福田区,22.570787,-1,114.04348
广东省深圳市福田区新洲牌坊街雅庭精品酒店,广东省,深圳市,福田区,22.52631,-1,114.046013
广东省深圳市福田区下沙花好园,广东省,深圳市,福田区,22.528271,-1,114.025192
广东省深圳市福田区海田路1008号雅颂居,广东省,深圳市,福田区,22.54363,-1,114.06557
广东省深圳市福田区金地名津,广东省,深圳市,福田区,22.516157,-1,114.073616
广东省深圳市福田区玮鹏花园,广东省,深圳市,福田区,22.541941,-1,114.094627
广东省深圳市福田区新世界·四季山水一期,广东省,深圳市,福田区,22.570868,-1,114.044798
广东省深圳市福田区福宁街桐林公寓,广东省,深圳市,福田区,22.532309,-1,114.07877
广东省深圳市罗湖区中兴路88号汉庭酒店,广东省,深圳市,罗湖区,22.549447,-1,114.126225
广东省深圳市罗湖区田贝二路金翠园,广东省,深圳市,罗湖区,22.561022,-1,114.128792
广东省深圳市罗湖区红桂路红桂一街50号环保大院,广东省,深圳市,罗湖区,22.54927,-1,114.10555
广东省深圳市罗湖区罗湖村五坊,广东省,深圳市,罗湖区,22.535784,-1,114.121292
广东省深圳市罗湖区长城大酒店,广东省,深圳市,罗湖区,22.550144,-1,114.106819
广东省深圳市罗湖区合正荣悦府,广东省,深圳市,罗湖区,22.552769,-1,114.129761
广东省深圳市罗湖区大望社区新田村,广东省,深圳市,罗湖区,22.59881,-1,114.175491
广东省深圳市罗湖区梧桐山社区赤水洞村,广东省,深圳市,罗湖区,22.59038,-1,114.187889
广东省深圳市罗湖区泥岗西路自来水公司大院,广东省,深圳市,罗湖区,22.567425,-1,114.101692
广东省深圳市罗湖区百仕达花园5期,广东省,深圳市,罗湖区,22.567587,-1,114.142075
广东省深圳市罗湖区翠华花园,广东省,深圳市,罗湖区,22.555679,-1,114.132393
广东省深圳市罗湖区海鹰大厦,广东省,深圳市,罗湖区,22.581209,-1,114.137802
广东省深圳市罗湖区鸿翔花园,广东省,深圳市,罗湖区,22.553869,-1,114.106598
广东省深圳市罗湖区东方颐园,广东省,深圳市,罗湖区,22.549641,-1,114.126373
广东省深圳市罗湖区天景花园,广东省,深圳市,罗湖区,22.5599,-1,114.141357
广东省深圳市罗湖区松园北街38号大院,广东省,深圳市,罗湖区,22.55362,-1,114.10754
广东省深圳市罗湖区海陇华苑,广东省,深圳市,罗湖区,22.546856,-1,114.13253
广东省深圳市罗湖区嘉宝田花园,广东省,深圳市,罗湖区,22.55805,-1,114.11116
广东省深圳市龙华区南国丽园,广东省,深圳市,龙华区,22.653721,-1,114.03019
广东省深圳市龙华区星河丹堤,广东省,深圳市,龙华区,22.594009,-1,114.058372
广东省深圳市龙华区春华四季园,广东省,深圳市,龙华区,22.62105,-1,114.051933
广东省深圳市龙华区观澜街道库坑中心区,广东省,深圳市,龙华区,22.735767,-1,114.035553
广东省深圳市龙华区民治街道锦绣江南,广东省,深圳市,龙华区,22.63525,-1,114.026512
广东省深圳市龙华区观湖街道观壹城,广东省,深圳市,龙华区,22.716293,-1,114.069054
广东省深圳市龙华区华业玫瑰四季2期,广东省,深圳市,龙华区,22.624571,-1,114.020264
广东省深圳市龙华区民治街道丰泽湖山庄,广东省,深圳市,龙华区,22.594219,-1,114.054466
广东省深圳市龙华区民治街道梅龙苑,广东省,深圳市,龙华区,22.644819,-1,114.036278
广东省深圳市龙华区民治街道翔龙御庭,广东省,深圳市,龙华区,22.636761,-1,114.0084
广东省深圳市龙华区民治街道金地梅陇镇,广东省,深圳市,龙华区,22.63035,-1,114.032204
广东省深圳市龙华区观湖街道懿花园,广东省,深圳市,龙华区,22.693081,-1,114.063591
广东省深圳市龙华区观湖街道招商观园,广东省,深圳市,龙华区,22.69067,-1,114.060753
广东省深圳市龙华区观澜湖高尔夫大宅昆士顿区,广东省,深圳市,龙华区,22.735367,-1,114.071457
广东省深圳市龙华区观澜街道华盛峰荟名庭2期,广东省,深圳市,龙华区,22.711752,-1,114.042458
广东省深圳市龙华区金地上塘道1期,广东省,深圳市,龙华区,22.63365,-1,114.021896
广东省深圳市龙华区龙华圆酒店,广东省,深圳市,龙华区,22.625075,-1,114.021636
广东省深圳市龙华区龙华街道新华苑2期,广东省,深圳市,龙华区,22.655111,-1,114.036484
广东省深圳市龙华区花半里,广东省,深圳市,龙华区,22.673337,-1,114.048099
广东省深圳市龙华区西头新村四区,广东省,深圳市,龙华区,22.641996,-1,114.016679
广东省深圳市龙岗区中央悦城,广东省,深圳市,龙岗区,22.732189,-1,114.242462
广东省深圳市龙岗区华创云轩B座,广东省,深圳市,龙岗区,22.651211,-1,114.065758
广东省深圳市龙岗区华策中心城,广东省,深圳市,龙岗区,22.701269,-1,114.244011
广东省深圳市龙岗区回龙埔万科翰邻城,广东省,深圳市,龙岗区,22.729898,-1,114.230133
广东省深圳市龙岗区大族河山,广东省,深圳市,龙岗区,22.612539,-1,114.157051
广东省深圳市龙岗区布吉慢城,广东省,深圳市,龙岗区,22.625,-1,114.127693
广东省深圳市龙岗区布吉新三村,广东省,深圳市,龙岗区,22.607544,-1,114.118835
广东省深圳市龙岗区布澜路尚峰花园,广东省,深圳市,龙岗区,22.623569,-1,114.138008
广东省深圳市龙岗区秀丽山庄,广东省,深圳市,龙岗区,22.611656,-1,114.107925
广东省深圳市龙岗区西环路八约1街龙富花园,广东省,深圳市,龙岗区,22.607309,-1,114.10891
广东省深圳市龙岗区金龙豪庭B栋,广东省,深圳市,龙岗区,22.617559,-1,114.146851
广东省深圳市龙岗区龙岗街道宝能悦澜山,广东省,深圳市,龙岗区,22.73472,-1,114.25103
广东省深圳市龙岗区中骏四季阳光一期,广东省,深圳市,龙岗区,22.72092,-1,114.30358
广东省深圳市龙岗区平湖山厦社区梨头廖,广东省,深圳市,龙岗区,22.703835,-1,114.115646
广东省深圳市龙岗区招商依山郡,广东省,深圳市,龙岗区,22.7292,-1,114.219032
广东省深圳市龙岗区桂芳园八期,广东省,深圳市,龙岗区,22.608202,-1,114.139481
广东省深圳市龙岗区嶂背步行街,广东省,深圳市,龙岗区,22.683491,-1,114.24189
广东省深圳市龙岗区吉信街如家酒店,广东省,深圳市,龙岗区,22.6425,-1,114.202477
广东省深圳市龙岗区和磡村和磡路3号,广东省,深圳市,龙岗区,22.6237,-1,114.06225
广东省深圳市龙岗区布吉海心汇福园,广东省,深圳市,龙岗区,22.617901,-1,114.110703
广东省深圳市龙岗区卓然居,广东省,深圳市,龙岗区,22.642981,-1,114.169708
广东省深圳市龙岗区家和花园南区,广东省,深圳市,龙岗区,22.61163,-1,114.06128
广东省深圳市龙岗区山厦社区南油花园,广东省,深圳市,龙岗区,22.69706,-1,114.110947
广东省深圳市龙岗区禾坪岗禾坪路5号,广东省,深圳市,龙岗区,22.65691,-1,114.06685
广东省深圳市龙岗区远洋新干线君域花园,广东省,深圳市,龙岗区,22.718225,-1,114.263541
广东省深圳市龙岗区雪象花园新村,广东省,深圳市,龙岗区,22.650541,-1,114.075745
广东省深圳市龙岗区鼎尚华庭,广东省,深圳市,龙岗区,22.773556,-1,114.301765
广东省深圳市龙岗区华为荔枝苑,广东省,深圳市,龙岗区,22.632759,-1,114.07695
广东省深圳市龙岗区德兴花园德贵苑,广东省,深圳市,龙岗区,22.589592,-1,114.110703
广东省深圳市龙岗区全伟达工业园,广东省,深圳市,龙岗区,22.62834,-1,114.100922
广东省深圳市龙岗区万科麓城,广东省,深圳市,龙岗区,22.62501,-1,114.102928
广东省深圳市龙岗区金德丰雅居,广东省,深圳市,龙岗区,22.689943,-1,114.113029
广东省深圳市龙岗区中海康城,广东省,深圳市,龙岗区,22.707239,-1,114.206421
广东省深圳市龙岗区华浩源,广东省,深圳市,龙岗区,22.62425,-1,114.125343
广东省深圳市龙岗区嘉霖·龙禧（龙禧雅苑）,广东省,深圳市,龙岗区,22.739239,-1,114.243614
广东省深圳市龙岗区坂田街道荔园新村,广东省,深圳市,龙岗区,22.636772,-1,114.071236
广东省深圳市龙岗区布吉街道百合山庄,广东省,深圳市,龙岗区,22.594481,-1,114.120071
广东省深圳市龙岗区平湖特力商厦,广东省,深圳市,龙岗区,22.698445,-1,114.132017
广东省深圳市龙岗区杨美社区长坑三区,广东省,深圳市,龙岗区,22.627382,-1,114.061569
广东省深圳市龙岗区龙城街道万象天成,广东省,深圳市,龙岗区,22.723747,-1,114.254402
广东省深圳市龙岗区龙城街道东方沁园,广东省,深圳市,龙岗区,22.725979,-1,114.224785
广东省深圳市龙岗区上木古社区岭根吓,广东省,深圳市,龙岗区,22.668053,-1,114.118782
广东省深圳市龙岗区新亚洲花园,广东省,深圳市,龙岗区,22.715481,-1,114.236504
广东省深圳市龙岗区正大时代华庭,广东省,深圳市,龙岗区,22.646927,-1,114.181473
广东省深圳市龙岗区百合星城二期,广东省,深圳市,龙岗区,22.596788,-1,114.121774
广东省深圳市龙岗区百合星城二期锦航酒店,广东省,深圳市,龙岗区,22.597395,-1,114.120238
广东省湛江市吴川市塘缀镇企石村,广东省,湛江市,吴川市,21.438351,-1,110.600662
广东省湛江市吴川市汇景湾渡假村,广东省,湛江市,吴川市,21.38648,-1,110.864052
广东省湛江市吴川市鼎龙湾2期,广东省,湛江市,吴川市,21.386234,-1,110.864388
广东省湛江市廉江市塘蓬镇山心村,广东省,湛江市,廉江市,21.779653,-1,110.042614
广东省湛江市赤坎区湾南路40号,广东省,湛江市,赤坎区,21.268853,-1,110.374424
广东省湛江市赤坎区茂达居,广东省,湛江市,赤坎区,21.282101,-1,110.361763
广东省湛江市雷州市纪家镇曲港村,广东省,湛江市,雷州市,20.87678,-1,109.749687
广东省湛江市雷州市英利镇幸福农场旧市场,广东省,湛江市,雷州市,20.56222,-1,110.01181
广东省湛江市霞山区嘉愉假日酒店,广东省,湛江市,霞山区,21.186319,-1,110.393646
广东省湛江市霞山区金祥花园金银阁,广东省,湛江市,霞山区,21.21167,-1,110.414818
广东省湛江市霞山区人民大道中13号邮电小区,广东省,湛江市,霞山区,21.215,-1,110.39564
广东省湛江市坡头区恒大绿洲,广东省,湛江市,坡头区,21.256041,-1,110.457733
广东省湛江市坡头区龙头镇绿水村委会山口村,广东省,湛江市,坡头区,21.337721,-1,110.450506
广东省湛江市开发区金地豪苑帝景庭,广东省,湛江市,开发区,21.212351,-1,110.419907
广东省珠海市斗门区斗门镇御金山小区,广东省,珠海市,斗门区,22.2152,2,113.220627
广东省珠海市斗门区井岸镇之舟客栈,广东省,珠海市,斗门区,22.15963,1,113.276817
广东省珠海市斗门区白蕉镇连桥路299号,广东省,珠海市,斗门区,22.226948,2,113.308744
广东省珠海市横琴新区横琴镇富祥湾深井村海马主题公寓,广东省,珠海市,横琴新区,22.09458,1,113.500359
广东省珠海市横琴新区祥澳路国贸大厦,广东省,珠海市,横琴新区,22.162899,3,113.510406
广东省珠海市金湾区三灶镇万科城市花园,广东省,珠海市,金湾区,22.06966,2,113.390518
广东省珠海市金湾区红旗镇广安路92号,广东省,珠海市,金湾区,22.13619,1,113.35248
广东省珠海市金湾区红旗镇东方润园,广东省,珠海市,金湾区,22.13365,2,113.345848
广东省珠海市金湾区红旗镇格林豪泰酒店,广东省,珠海市,金湾区,22.13661,6,113.344454
广东省珠海市金湾区红旗镇中珠山海间小区,广东省,珠海市,金湾区,22.136286,1,113.3512
广东省珠海市香洲区前山街道权英豪苑,广东省,珠海市,香洲区,22.28112,3,113.525742
广东省珠海市香洲区前山街道荣泰河庭,广东省,珠海市,香洲区,22.238239,1,113.509499
广东省珠海市香洲区前山街道银石雅园,广东省,珠海市,香洲区,22.233986,1,113.535698
广东省珠海市香洲区吉大街道绿茵豪庭,广东省,珠海市,香洲区,22.24864,3,113.58374
广东省珠海市香洲区吉大街道锦江之星酒店（九洲大道店）,广东省,珠海市,香洲区,22.24597,1,113.578226
广东省珠海市香洲区拱北街道蔚徕酒店,广东省,珠海市,香洲区,22.216711,3,113.55085
广东省珠海市香洲区拱北街道骏发山庄,广东省,珠海市,香洲区,22.231279,1,113.554108
广东省珠海市香洲区梅华街道富华广场3期,广东省,珠海市,香洲区,22.267361,4,113.532059
广东省珠海市香洲区湾仔街道南联路91号,广东省,珠海市,香洲区,22.20378,1,113.52731
广东省珠海市香洲区狮山街道望海楼酒店,广东省,珠海市,香洲区,22.26643,2,113.580528
广东省珠海市香洲区狮山街道锦枫八方酒店,广东省,珠海市,香洲区,22.279446,1,113.570564
广东省珠海市香洲区翠香街道御龙山庄,广东省,珠海市,香洲区,22.255171,1,113.556221
广东省珠海市香洲区香湾街道金域蓝湾,广东省,珠海市,香洲区,22.283791,1,113.577599
广东省珠海市香洲区前山街道万科城,广东省,珠海市,香洲区,22.270741,4,113.503906
广东省珠海市香洲区前山街道暨南花园,广东省,珠海市,香洲区,22.2815,3,113.523598
广东省珠海市香洲区南屏镇华发世纪城,广东省,珠海市,香洲区,22.213091,3,113.526466
广东省珠海市香洲区梅华街道金鸿利嘉阁,广东省,珠海市,香洲区,22.26531,2,113.529358
广东省珠海市香洲区翠香街道汉庭快捷酒店（银桦路店店）,广东省,珠海市,香洲区,22.277722,1,113.563652
广东省珠海市香洲区南屏镇新翠路101号,广东省,珠海市,香洲区,22.20283,-1,113.45261
广东省珠海市香洲区拱北街道拱北城市便捷酒店,广东省,珠海市,香洲区,22.22122,-1,113.555931
广东省珠海市香洲区拱北街道珠海来魅力假日酒店,广东省,珠海市,香洲区,22.217661,-1,113.552139
广东省珠海市香洲区狮山街道国子间,广东省,珠海市,香洲区,22.281099,3,113.574669
广东省珠海市香洲区香湾街道锦江之星酒店（扬名广场店）,广东省,珠海市,香洲区,22.279966,2,113.559283
广东省珠海市香洲区前山街道金地伊顿山,广东省,珠海市,香洲区,22.279625,1,113.531578
广东省珠海市香洲区湖北来珠人员安置点,广东省,珠海市,香洲区,22.221222,1,113.548134
广东省珠海市高新区唐家湾镇中海银海湾,广东省,珠海市,高新区,22.315689,1,113.593323
广东省珠海市高新区唐家湾镇旭日湾花园,广东省,珠海市,高新区,22.33358,1,113.592758
广东省珠海市高新区唐家湾镇鸡山村,广东省,珠海市,高新区,22.33733,1,113.58989
广东省珠海市高新区金鼎南星街,广东省,珠海市,高新区,22.18355,1,113.30056
广东省珠海市高栏港区平沙镇美平一街240号,广东省,珠海市,高栏港区,22.10012,1,113.18597
广东省肇庆市四会市东城街道九龙湾小区,广东省,肇庆市,四会市,23.328899,-1,112.720383
广东省肇庆市广宁县南街镇碧翠湖度假村,广东省,肇庆市,广宁县,23.606922,-1,112.430084
广东省肇庆市端州区城东街道帝和豪庭小区,广东省,肇庆市,端州区,23.057911,-1,112.487228
广东省肇庆市端州区睦岗街道锦绣山河小区,广东省,肇庆市,端州区,23.053511,-1,112.433563
广东省肇庆市高要区南岸街道帝景蓝湾小区,广东省,肇庆市,高要区,23.027611,-1,112.472557
广东省肇庆市高要区南岸街道珀丽湾小区,广东省,肇庆市,高要区,23.030479,-1,112.458076
广东省肇庆市高要区大湾镇禄岸村,广东省,肇庆市,高要区,23.045719,-1,112.316093
广东省肇庆市鼎湖区坑口街道一米阳光小区,广东省,肇庆市,鼎湖区,23.14522,-1,112.565399
广东省肇庆市封开县杏花镇新和村,广东省,肇庆市,封开县,23.398001,-1,111.711082
广东省肇庆市封开县唐八叔清补羊火锅店,广东省,肇庆市,封开县,23.450793,-1,111.499331
广东省肇庆市封开县广信嘉园,广东省,肇庆市,封开县,23.44758,-1,111.500816
广东省肇庆市封开县江口镇乐惠士多店,广东省,肇庆市,封开县,23.428682,-1,111.510949
广东省肇庆市封开县江口镇曙光路31号,广东省,肇庆市,封开县,23.434227,-1,111.501577
广东省肇庆市封开县江口镇东方二路115号,广东省,肇庆市,封开县,23.441761,1,111.505388
广东省肇庆市封开县江口镇水上居民安置楼,广东省,肇庆市,封开县,23.42918,1,111.510818
广东省肇庆市封开县江口镇河堤二路22号,广东省,肇庆市,封开县,23.439194,1,111.499262
广东省阳江市江城区三环路,广东省,阳江市,江城区,21.84407,1,111.980614
广东省阳江市海陵区保利银滩B区,广东省,阳江市,海陵区,21.577953,-1,111.876839
广东省阳江市海陵区恒大御景湾,广东省,阳江市,海陵区,21.612989,-1,111.920258
广东省阳江市海陵区敏捷黄金海岸,广东省,阳江市,海陵区,21.611879,-1,111.941994
广东省阳江市阳东区东城辛福街,广东省,阳江市,阳东区,21.855479,1,112.005412
广东省阳江市阳春市兴华路,广东省,阳江市,阳春市,22.154791,2,111.787849
广东省阳江市阳西县织篢镇蒲牌墟,广东省,阳江市,阳西县,21.678009,1,111.544567
广东省惠州市仲恺区陈江街道御景华城,广东省,惠州市,仲恺区,23.00094,-1,114.319206
广东省惠州市博罗县柏塘镇车田村,广东省,惠州市,博罗县,23.4105,-1,114.328148
广东省惠州市博罗县长宁镇罗浮山家园,广东省,惠州市,博罗县,23.217609,-1,114.04985
广东省惠州市大亚湾区康汇花园,广东省,惠州市,大亚湾区,22.739759,-1,114.539871
广东省惠州市大亚湾区澳头街道办事处枫丹白鹭园,广东省,惠州市,大亚湾区,22.735849,-1,114.539742
广东省惠州市大亚湾区霞涌街道办事处华润小径湾观海轩,广东省,惠州市,大亚湾区,22.790525,-1,114.695473
广东省惠州市大亚湾区大亚湾西区碧桂园公园上城,广东省,惠州市,大亚湾区,22.75027,-1,114.504267
广东省惠州市惠东县万科双月湾,广东省,惠州市,惠东县,22.593121,-1,114.882767
广东省惠州市惠东县平海镇驴友公寓,广东省,惠州市,惠东县,22.602939,-1,114.873921
广东省惠州市惠东县稔山镇碧桂园十里银滩海悦湾,广东省,惠州市,惠东县,22.793669,-1,114.726639
广东省惠州市惠东县巽寮滨海旅游度假区全季酒店,广东省,惠州市,惠东县,22.690519,-1,114.761253
广东省惠州市惠东县巽寮滨海旅游度假区海公园,广东省,惠州市,惠东县,22.684608,-1,114.756721
广东省惠州市惠东县港口虹海湾,广东省,惠州市,惠东县,22.590916,-1,114.90464
广东省惠州市惠东县巽寮滨海旅游度假区企鹅酒店,广东省,惠州市,惠东县,22.685153,-1,114.757039
广东省惠州市惠城区三栋镇大井口村,广东省,惠州市,惠城区,22.987743,-1,114.474307
广东省惠州市惠城区桥东街道东方威尼斯,广东省,惠州市,惠城区,23.087429,-1,114.437691
广东省惠州市惠城区桥东街道中海水岸城,广东省,惠州市,惠城区,23.069811,-1,114.451073
广东省惠州市惠城区雅居乐大道1号鹭湖会峰会别墅,广东省,惠州市,惠城区,23.19979,-1,114.45113
广东省惠州市惠城区龙丰街道鹅岭南路一城峯景,广东省,惠州市,惠城区,23.064919,-1,114.393654
广东省惠州市惠城区小金口街道乌石村田寮村民小组,广东省,惠州市,惠城区,23.139481,-1,114.424927
广东省惠州市惠城区中海凯旋城5区,广东省,惠州市,惠城区,23.039425,-1,114.449038
广东省惠州市惠城区小金口街道金都雅苑,广东省,惠州市,惠城区,23.177509,-1,114.409309
广东省惠州市惠城区江北街道城市花园,广东省,惠州市,惠城区,23.101061,-1,114.41288
广东省惠州市惠城区水口街道世纪东方城,广东省,惠州市,惠城区,23.101578,-1,114.465813
广东省惠州市惠阳区淡水街道人民四路天安珑城,广东省,惠州市,惠阳区,22.797009,-1,114.45723
广东省惠州市惠阳区淡水街道星河丹堤,广东省,惠州市,惠阳区,22.774179,-1,114.486732
广东省汕头市南澳县蓝海豪景,广东省,汕头市,南澳县,23.410559,1,117.033646
广东省汕头市南澳县深澳镇走马埔村,广东省,汕头市,南澳县,23.468273,2,117.057793
广东省汕头市潮阳区关埠镇下底村,广东省,汕头市,潮阳区,23.476021,2,116.451202
广东省汕头市金平区东兴路11巷,广东省,汕头市,金平区,23.40195,1,116.71169
广东省汕头市金平区中信怀英花园,广东省,汕头市,金平区,23.390551,1,116.720123
广东省汕头市龙湖区龙腾熙园,广东省,汕头市,龙湖区,23.40081,1,116.736977
广东省汕头市龙湖区鸥汀街道陈厝寨华兴园,广东省,汕头市,龙湖区,23.437351,1,116.714493
广东省汕头市潮南区成田镇简朴村,广东省,汕头市,潮南区,23.17078,1,116.483658
广东省汕头市潮南区陇田镇南埔村,广东省,汕头市,潮南区,23.15302,1,116.530912
广东省清远市佛冈县银座超市,广东省,清远市,佛冈县,23.87921,-1,113.53172
广东省清远市清城区东城街海逸华庭,广东省,清远市,清城区,23.70418,-1,113.046013
广东省清远市清城区凤城世家,广东省,清远市,清城区,23.680201,-1,113.059212
广东省清远市清城区源潭镇佳利乐包装有限公司宿舍区,广东省,清远市,清城区,23.65653,-1,113.214104
广东省清远市清城区石角镇美林湖天汇半岛,广东省,清远市,清城区,23.50738,-1,113.055168
广东省清远市英德市青塘建新村委会陈屋村,广东省,清远市,英德市,24.15951,-1,113.808578
广东省清远市英德市青塘集贸市场,广东省,清远市,英德市,24.207741,-1,113.852638
广东省清远市连山壮族瑶族自治县吉田镇御庭山庄,广东省,清远市,连山壮族瑶族自治县,24.56403,-1,112.090759
广东省清远市连山壮族瑶族自治县小三江镇田心村委会雷冲村,广东省,清远市,连山壮族瑶族自治县,24.269909,-1,112.137238
广东省清远市阳山县城南海逸华庭,广东省,清远市,阳山县,24.475651,-1,112.633476
广东省河源市东源县船塘镇三河积良下村,广东省,河源市,东源县,24.162107,1,114.945521
广东省河源市源城区旺福路,广东省,河源市,源城区,23.743971,1,114.706543
广东省茂名市信宜市怀乡镇永隆竹坳双龙村,广东省,茂名市,信宜市,22.47368,1,111.037727
广东省韶关市新丰县丰城街道,广东省,韶关市,新丰县,24.054259,1,114.208731
江苏省南通市如皋市长江镇春江花苑,江苏省,南通市,如皋市,32.105682,3,120.574966
江苏省南通市如皋市如城街道凌青8组,江苏省,南通市,如皋市,32.43618,2,120.624161
江苏省南通市如皋市江安镇佘圩村8组,江苏省,南通市,如皋市,32.136429,1,120.452499
江苏省南通市如皋市如城街道皋南新村,江苏省,南通市,如皋市,32.37347,1,120.562431
江苏省南通市海安市高新区中城街道金海国际花园,江苏省,南通市,海安市,32.52306,1,120.468483
江苏省南通市海安市南莫镇政府巷1号,江苏省,南通市,海安市,32.587002,1,120.285278
江苏省南通市海安市南莫镇柴垛村19组,江苏省,南通市,海安市,32.606621,1,120.300621
江苏省南通市海安市高新区西城街道拥徐村14组,江苏省,南通市,海安市,32.54789,1,120.382133
江苏省南通市通州区张芝山镇八字桥村23组,江苏省,南通市,通州区,31.878139,3,121.038353
江苏省南通市通州区平潮镇三官殿村2组,江苏省,南通市,通州区,32.11187,1,120.738472
江苏省南通市通州区平潮镇栖凤二期,江苏省,南通市,通州区,32.09282,1,120.73827
江苏省南通市通州区平潮镇沪通大桥监理项目部,江苏省,南通市,通州区,32.100441,1,120.748199
江苏省南通市通州区金新街道夏四店花苑,江苏省,南通市,通州区,32.016171,1,121.022812
江苏省南通市通州区张芝山镇八字桥村,江苏省,南通市,通州区,31.88302,1,121.030075
江苏省南通市启东市吕四港镇秦潭西小区,江苏省,南通市,启东市,32.02903,1,121.697533
江苏省南通市启东市王鲍镇黄英村,江苏省,南通市,启东市,31.951059,1,121.574226
江苏省南通市如东县栟茶镇兴凌村26组,江苏省,南通市,如东县,32.58358,1,120.898743
江苏省南通市如东县栟茶镇竹园村17组,江苏省,南通市,如东县,32.546101,2,120.856056
江苏省南通市海门市三厂镇南村12组,江苏省,南通市,海门市,31.893274,2,121.255302
江苏省南通市海门市三厂镇钟楼新村,江苏省,南通市,海门市,31.89015,1,121.248161
江苏省南通市海门市三厂镇龙江花园,江苏省,南通市,海门市,31.887251,2,121.25457
江苏省南通市海门市悦来镇保民村30组,江苏省,南通市,海门市,31.95508,1,121.481712
江苏省南通市海门市悦来镇鲜行村38组,江苏省,南通市,海门市,31.947901,1,121.493973
江苏省南通市海门市海门港新区,江苏省,南通市,海门市,32.103195,1,121.459717
江苏省南通市海门市滨江街道兄弟村24组,江苏省,南通市,海门市,31.8904,1,121.094131
江苏省南通市海门市高新区,江苏省,南通市,海门市,31.884129,1,121.156914
江苏省南通市海门市三厂街道钟楼新村,江苏省,南通市,海门市,31.89015,1,121.248161
江苏省南通市海门市高新区港南小区,江苏省,南通市,海门市,31.88047,1,121.160591
江苏省南通市海门市三星镇建安村20组,江苏省,南通市,海门市,31.920319,1,121.102018
江苏省南通市海门市开发区通源新村,江苏省,南通市,海门市开发区,31.900311,3,121.189369
江苏省常州市经开区横林镇,江苏省,常州市,经开区,31.69803,2,120.10051
江苏省常州市经开区卫星村,江苏省,常州市,经开区,31.792528,8,119.973684
江苏省常州市天宁区郑陆镇东青长青名苑,江苏省,常州市,天宁区,31.82206,4,120.084808
江苏省常州市天宁区青龙街道青龙苑,江苏省,常州市,天宁区,31.793285,1,120.017876
江苏省常州市新北区新桥镇滨江明珠城,江苏省,常州市,新北区,31.868422,2,119.973969
江苏省常州市新北区三井街道世茂香槟湖,江苏省,常州市,新北区,31.812407,1,119.998734
江苏省常州市武进区洛阳镇民丰村徐家头,江苏省,常州市,武进区,31.61076,1,120.063469
江苏省常州市武进区湖塘镇中壮新村,江苏省,常州市,武进区,31.718794,1,119.950317
江苏省常州市武进区湖塘镇新城帝景北区,江苏省,常州市,武进区,31.70925,3,119.95026
江苏省常州市武进区高新区北区新城春天里,江苏省,常州市,武进区,31.72658,1,119.97094
江苏省常州市武进区湖塘镇,江苏省,常州市,武进区,31.72686,1,119.947823
江苏省常州市武进区牛塘镇,江苏省,常州市,武进区,31.73189,1,119.900269
江苏省常州市溧阳市社渚镇大众巷,江苏省,常州市,溧阳市,31.31741,2,119.27639
江苏省常州市溧阳市别桥镇,江苏省,常州市,溧阳市,31.562392,1,119.447826
江苏省常州市金坛区西城街道,江苏省,常州市,金坛区,30.364831,2,112.21156
江苏省常州市金坛区东城街道,江苏省,常州市,金坛区,31.740129,2,119.61161
江苏省常州市金坛区薛埠镇,江苏省,常州市,金坛区,31.717609,1,119.382309
江苏省常州市钟楼区永红街道荆川里小区,江苏省,常州市,钟楼区,31.758457,1,119.927933
江苏省常州市钟楼区邹区镇凌家塘,江苏省,常州市,钟楼区,31.769886,1,119.891427
江苏省徐州市丰县华山镇邢桥村王庄,江苏省,徐州市,丰县,34.657806,2,116.748008
江苏省徐州市丰县华山镇邢桥村郭楼王庄,江苏省,徐州市,丰县,34.681549,1,116.703171
江苏省徐州市新沂市马陵山风景区花厅村,江苏省,徐州市,新沂市,34.230492,1,118.333282
江苏省徐州市沛县沛城镇梦圆小区,江苏省,徐州市,沛县,34.738636,1,116.94146
江苏省徐州市贾汪区大泉街泉城花都,江苏省,徐州市,贾汪区,34.442757,1,117.47725
江苏省徐州市贾汪区老矿街道泉旺头村,江苏省,徐州市,贾汪区,34.446918,1,117.436493
江苏省徐州市邳州市建设南路蔬菜公司宿舍,江苏省,徐州市,邳州市,34.314419,1,117.95961
江苏省徐州市邳州市明德小区,江苏省,徐州市,邳州市,34.334351,1,117.972069
江苏省徐州市邳州市运河镇银河湾小区,江苏省,徐州市,邳州市,34.297585,3,117.975311
江苏省徐州市邳州市港上镇南荆邑村,江苏省,徐州市,邳州市,34.502628,1,118.101929
江苏省徐州市邳州市水杉御景小区,江苏省,徐州市,邳州市,34.340939,1,117.96756
江苏省徐州市邳州市建设南路蔬菜公司宿舍北楼,江苏省,徐州市,邳州市,34.314656,1,117.959706
江苏省徐州市鼓楼区西站小区,江苏省,徐州市,鼓楼区,34.275501,2,117.186569
江苏省徐州市云龙区美的翰城,江苏省,徐州市,云龙区,34.209122,1,117.298218
江苏省徐州市云龙区世茂天观,江苏省,徐州市,云龙区,34.242668,1,117.215584
江苏省徐州市云龙区骆驼山街道世贸天观,江苏省,徐州市,云龙区,34.243858,1,117.214111
江苏省徐州市睢宁县天华小区,江苏省,徐州市,睢宁县,33.902039,1,117.975891
江苏省徐州市睢宁县睢城街道帝壹城,江苏省,徐州市,睢宁县,33.899792,1,117.97039
江苏省徐州市睢宁县胡集村赵西组,江苏省,徐州市,睢宁县,33.899599,1,117.718318
江苏省徐州市睢宁县高作镇高南村,江苏省,徐州市,睢宁县,33.905116,1,118.0394
江苏省徐州市睢宁县康馨花园小区东门对面巷子,江苏省,徐州市,睢宁县,33.904058,2,117.961601
江苏省徐州市睢宁县睢城镇东方花园,江苏省,徐州市,睢宁县,33.90398,3,117.96312
江苏省徐州市睢宁县睢城镇奥体清华苑,江苏省,徐州市,睢宁县,33.919022,1,117.962624
江苏省徐州市睢宁县睢城镇瑞凯国际,江苏省,徐州市,睢宁县,33.913223,1,117.959442
江苏省徐州市睢宁县锦绣华庭,江苏省,徐州市,睢宁县,33.896961,1,117.947227
江苏省徐州市睢宁县睢城镇星河湾,江苏省,徐州市,睢宁县,33.88789,1,117.965103
江苏省徐州市睢宁县邱集镇大主村,江苏省,徐州市,睢宁县,33.819777,1,118.041414
江苏省徐州市睢宁县幸福家园小区,江苏省,徐州市,睢宁县,33.905331,1,117.895103
江苏省徐州市睢宁县睢城镇温馨嘉苑,江苏省,徐州市,睢宁县,33.893791,1,117.961258
江苏省徐州市睢宁县东北小区,江苏省,徐州市,睢宁县,33.909718,1,117.961426
江苏省徐州市睢宁县睢城镇睢城街道红旗小区,江苏省,徐州市,睢宁县,33.90443,1,117.946037
江苏省徐州市睢宁县睢城镇龙城国际,江苏省,徐州市,睢宁县,33.917442,1,117.936981
江苏省徐州市睢宁县岚山镇土山村,江苏省,徐州市,睢宁县,33.927754,1,117.697561
江苏省徐州市睢宁县桃园镇桃园村仔仙路,江苏省,徐州市,睢宁县,33.855742,1,117.772818
江苏省徐州市睢宁县欧洲城,江苏省,徐州市,睢宁县,33.916695,1,117.964086
江苏省徐州市睢宁县睢城镇睢中教师公寓,江苏省,徐州市,睢宁县,33.899096,1,117.963827
江苏省徐州市泉山区山语世家商住楼,江苏省,徐州市,泉山区,34.215321,1,117.171501
江苏省泰州市兴化市张郭镇蒋庄村,江苏省,泰州市,兴化市,32.749581,1,120.19395
江苏省泰州市靖江市靖城街道胜利街,江苏省,泰州市,靖江市,32.015701,1,120.265068
江苏省泰州市靖江市城北小学教工楼,江苏省,泰州市,靖江市,32.022701,2,120.269318
江苏省泰州市靖江市斜桥兴阜小区,江苏省,泰州市,靖江市,32.06321,1,120.386009
江苏省泰州市靖江市滨江新区华阳社区西区,江苏省,泰州市,靖江市,32.0014,2,120.289998
江苏省泰州市靖江市滨江新区雅桥范盛圩,江苏省,泰州市,靖江市,31.969467,1,120.17035
江苏省泰州市靖江市马桥镇侯河村,江苏省,泰州市,靖江市,32.083511,1,120.219849
江苏省泰州市靖江市靖城街道胜利街53号,江苏省,泰州市,靖江市,32.016027,1,120.264356
江苏省泰州市靖江市靖城街道阳光国际凌云丽景小区,江苏省,泰州市,靖江市,31.98867,2,120.278414
江苏省泰州市姜堰区三水街道陈庄村,江苏省,泰州市,姜堰区,32.493797,1,120.122223
江苏省泰州市姜堰区天目山街道康华新村,江苏省,泰州市,姜堰区,32.516029,1,120.161423
江苏省泰州市姜堰区白米镇张沐大安村,江苏省,泰州市,姜堰区,32.467285,1,120.194542
江苏省泰州市姜堰区罗塘街道中天新村,江苏省,泰州市,姜堰区,32.49799,1,120.170631
江苏省泰州市姜堰区罗塘街道亚美国际,江苏省,泰州市,姜堰区,32.494781,1,120.146919
江苏省泰州市姜堰区罗塘街道胜利华庭,江苏省,泰州市,姜堰区,32.510799,1,120.155502
江苏省泰州市泰兴市广陵镇联吴村,江苏省,泰州市,泰兴市,32.173092,2,120.27076
泰州泰兴市珊瑚镇曹埠村,江苏省,泰州市,泰兴市,32.148877,1,120.340158
江苏省泰州市海陵区物流园区紫金华府,江苏省,泰州市,海陵区,32.5112,2,119.895302
江苏省泰州市高新区凤凰街道盛和花园,江苏省,泰州市,高新区,32.451962,1,119.915611
江苏省泰州市高新区野徐镇永丰村,江苏省,泰州市,高新区,32.386002,1,119.949142
江苏省泰州市高港区口岸街道中兴旺铺,江苏省,泰州市,高港区,32.305042,1,119.879478
江苏省泰州市高港区口岸街道柴墟西路,江苏省,泰州市,高港区,32.304241,1,119.881912
江苏省泰州市高港区大泗镇大泗村,江苏省,泰州市,高港区,32.356098,1,119.973869
江苏省连云港市海州区振海路正诺中西医结合诊所,江苏省,连云港市,海州区,34.590597,-1,119.156735
江苏省连云港市海州区振海路江希银诊所,江苏省,连云港市,海州区,34.589859,-1,119.156967
江苏省连云港市海州区青岛花园,江苏省,连云港市,海州区,34.586578,1,119.15863
江苏省连云港市海州区巨龙街糖兴巷,江苏省,连云港市,海州区,34.606991,1,119.206192
江苏省连云港市海州区新孔南路供电局宿舍,江苏省,连云港市,海州区,34.590878,-1,119.164276
江苏省连云港市海州区浦西街道龙尾路,江苏省,连云港市,海州区,34.612728,-1,119.179977
江苏省连云港市海州区常乐新村,江苏省,连云港市,海州区,34.589989,2,119.162781
江苏省连云港市海州区板浦镇润昌小区,江苏省,连云港市,海州区,34.486919,1,119.246979
江苏省连云港市海州区路南街道运河路,江苏省,连云港市,海州区,34.589081,1,119.173828
江苏省连云港市海州区宁海街道卞浦村,江苏省,连云港市,海州区,34.52533,1,119.207497
江苏省连云港市海州区板浦镇天池小区,江苏省,连云港市,海州区,34.476761,1,119.254692
江苏省连云港市海州区江化北路江化小区,江苏省,连云港市,海州区,34.578541,1,119.152557
江苏省连云港市海州区香江花园,江苏省,连云港市,海州区,34.57803,1,119.158638
江苏省连云港市海州区万山城市花园,江苏省,连云港市,海州区,34.610661,1,119.183472
江苏省连云港市灌南县新安镇人民西路海西公园旁大药房,江苏省,连云港市,灌南县,34.088261,1,119.335381
江苏省连云港市灌南县新安镇西村康泰小区49号楼5单元,江苏省,连云港市,灌南县,34.089934,1,119.306288
江苏省连云港市灌南县新安镇中科府苑D14号楼1单元,江苏省,连云港市,灌南县,34.092548,1,119.316399
江苏省连云港市灌南县新安镇加州水岸19号楼2单元,江苏省,连云港市,灌南县,34.077419,1,119.318909
江苏省连云港市灌南县新安镇海西公园旁大药房,江苏省,连云港市,灌南县,34.088261,1,119.335381
江苏省连云港市灌南县新安镇人民路860号硕湖小区,江苏省,连云港市,灌南县,34.093071,1,119.352257
江苏省连云港市灌南县新安镇德汇花园6号楼3单元,江苏省,连云港市,灌南县,34.08057,1,119.326637
江苏省连云港市灌南县新安镇运输公司家属区2单元,江苏省,连云港市,灌南县,34.099988,1,119.379676
江苏省扬州市广陵区汤汪乡怡新花园1栋,江苏省,扬州市,广陵区,32.378021,1,119.492348
江苏省扬州市江都区大桥镇启于村,江苏省,扬州市,江都区,32.39587,1,119.686974
江苏省扬州市江都区江都华丰紫郡,江苏省,扬州市,江都区,32.447201,1,119.572472
江苏省扬州市江都区邵伯镇京杭村,江苏省,扬州市,江都区,32.59877,1,119.487823
江苏省扬州市江都区仙女镇江淮路82号,江苏省,扬州市,江都区,32.43399,1,119.56016
江苏省扬州市江都区邵伯镇运东村,江苏省,扬州市,江都区,32.608292,1,119.484108
江苏省扬州市江都区勤丰嘉苑26号楼,江苏省,扬州市,江都区,32.44725,1,119.560509
江苏省扬州市宝应县广洋湖镇东溪村,江苏省,扬州市,宝应县,33.206268,2,119.663254
江苏省扬州市宝应县柳堡镇新安村,江苏省,扬州市,宝应县,33.153221,1,119.525162
江苏省扬州市宝应县广洋湖镇一里村三组,江苏省,扬州市,宝应县,33.221519,1,119.635406
江苏省扬州市宝应县碧桂园40幢,江苏省,扬州市,宝应县,33.22147,1,119.341049
江苏省扬州市宝应县安宜镇芦松三村,江苏省,扬州市,宝应县,33.234089,1,119.317902
江苏省扬州市宝应县安宜镇莲馨家园9栋,江苏省,扬州市,宝应县,33.252129,1,119.351753
江苏省扬州市蜀冈-瘦西湖景区史可法路39号,江苏省,扬州市,蜀冈-瘦西湖景区,32.40887,1,119.44042
江苏省扬州市邗江区京华城怡景苑,江苏省,扬州市,邗江区,32.383968,1,119.378891
江苏省扬州市邗江区西湖镇汇锦花园,江苏省,扬州市,邗江区,32.423519,2,119.385651
江苏省苏州市吴中区木渎镇五峰村,江苏省,苏州市,吴中区,31.27025,-1,120.47287
江苏省苏州市吴中区木渎镇青年城,江苏省,苏州市,吴中区,31.282021,-1,120.522812
江苏省苏州市吴中区甪直镇维拉花园,江苏省,苏州市,吴中区,31.278466,-1,120.838757
江苏省苏州市吴中区香山街道花样年·别样城,江苏省,苏州市,吴中区,31.22377,-1,120.420799
江苏省苏州市吴中区南香花弄,江苏省,苏州市,吴中区,31.164789,1,120.537727
江苏省苏州市吴中区木渎镇方圆·云山诗意,江苏省,苏州市,吴中区,31.255238,1,120.537842
江苏省苏州市吴中区郭巷街道国泰三村,江苏省,苏州市,吴中区,31.25168,1,120.685112
江苏省苏州市吴江区平望镇印象家园,江苏省,苏州市,吴江区,30.982389,2,120.633728
江苏省苏州市吴江区松陵街道鲈乡三村,江苏省,苏州市,吴江区,31.166519,-1,120.636551
江苏省苏州市吴江区盛泽镇城中花园,江苏省,苏州市,吴江区,30.904591,-1,120.648148
江苏省苏州市吴江区盛泽镇碧桂园小区,江苏省,苏州市,吴江区,30.890415,-1,120.609594
江苏省苏州市吴江区震泽镇太平街道,江苏省,苏州市,吴江区,30.912861,-1,120.509178
江苏省苏州市吴江区松陵街道友谊村,江苏省,苏州市,吴江区,31.082239,1,120.664192
江苏省苏州市吴江区八坼街道友谊村,江苏省,苏州市,吴江区,31.082293,1,120.66414
江苏省苏州市太仓市城厢镇北门一村,江苏省,苏州市,太仓市,31.45631,-1,121.112297
江苏省苏州市太仓市锦州路福乐园,江苏省,苏州市,太仓市,31.445299,1,121.123917
江苏省苏州市姑苏区三元三村金阊街道,江苏省,苏州市,姑苏区,31.301295,-1,120.590609
江苏省苏州市姑苏区苏锦街道万科金域平江,江苏省,苏州市,姑苏区,31.343269,-1,120.618881
江苏省苏州市姑苏区虎丘街道西叶家弄,江苏省,苏州市,姑苏区,31.305019,-1,120.635841
江苏省苏州市姑苏区金阊街道利景华庭,江苏省,苏州市,姑苏区,31.305241,-1,120.60199
江苏省苏州市姑苏区仁安街,江苏省,苏州市,姑苏区,31.317958,1,120.590629
江苏省苏州市工业园区东港二村娄葑街道,江苏省,苏州市,工业园区,31.31703,-1,120.654449
江苏省苏州市工业园区东港新村娄葑街道二组团,江苏省,苏州市,工业园区,31.322565,-1,120.650703
江苏省苏州市工业园区东湖大郡2期,江苏省,苏州市,工业园区,31.310261,-1,120.733063
江苏省苏州市工业园区九龙仓时代上城,江苏省,苏州市,工业园区,31.329414,-1,120.680557
江苏省苏州市工业园区唯亭街道张泾一村,江苏省,苏州市,工业园区,31.37174,-1,120.722389
江苏省苏州市工业园区唯亭街道青剑湖花园,江苏省,苏州市,工业园区,31.357037,1,120.70816
江苏省苏州市工业园区嘉瑞巷乐嘉大厦,江苏省,苏州市,工业园区,31.32477,-1,120.719177
江苏省苏州市工业园区太阳星辰花园,江苏省,苏州市,工业园区,31.33371,-1,120.7658
江苏省苏州市工业园区徐家浜北二村娄葑街道,江苏省,苏州市,工业园区,31.31024,-1,120.65358
江苏省苏州市工业园区星公元名邸,江苏省,苏州市,工业园区,31.310276,4,120.7537
江苏省苏州市工业园区水墨花园,江苏省,苏州市,工业园区,31.329414,-1,120.680557
江苏省苏州市工业园区海尚壹品,江苏省,苏州市,工业园区,31.32937,-1,120.716248
江苏省苏州市工业园区海德公园,江苏省,苏州市,工业园区,31.273451,-1,120.748817
江苏省苏州市工业园区荣域花园,江苏省,苏州市,工业园区,31.282009,-1,120.724693
江苏省苏州市工业园区雅戈尔潇邦东区,江苏省,苏州市,工业园区,31.330776,-1,120.706329
江苏省苏州市工业园区东港二村,江苏省,苏州市,工业园区,31.31703,2,120.654449
江苏省苏州市工业园区莲花新村5区,江苏省,苏州市,工业园区,31.285963,1,120.731483
江苏省苏州市常熟市吴市办事处三湾村,江苏省,苏州市,常熟市,31.714331,-1,120.986023
江苏省苏州市常熟市鸭潭头小区,江苏省,苏州市,常熟市,31.6513,1,120.748268
江苏省苏州市常熟市虞山街道五星新村2区,江苏省,苏州市,常熟市,31.65926,1,120.750877
江苏省苏州市昆山市周市镇时代名苑,江苏省,苏州市,昆山市,31.40484,-1,120.995911
江苏省苏州市昆山市玉山镇世茂蝶湖湾小区,江苏省,苏州市,昆山市,31.339407,-1,120.962303
江苏省苏州市昆山市玉山镇北门路永盛广场,江苏省,苏州市,昆山市,31.41391,-1,120.949501
江苏省苏州市昆山市玉山镇澞和苑,江苏省,苏州市,昆山市,31.372311,-1,120.948517
江苏省苏州市昆山市玉山镇珑庭家园,江苏省,苏州市,昆山市,31.358675,-1,120.948965
江苏省苏州市昆山市珠江御景,江苏省,苏州市,昆山市,31.38987,-1,121.032539
江苏省苏州市昆山市阳光水世界,江苏省,苏州市,昆山市,31.37677,-1,121.043098
江苏省苏州市昆山市首创悦都小区,江苏省,苏州市,昆山市,31.366613,-1,121.06411
江苏省苏州市昆山市玉山镇珑庭花园,江苏省,苏州市,昆山市,31.358467,1,120.94986
江苏省苏州市昆山市玉山镇麒麟新村,江苏省,苏州市,昆山市,31.384239,1,120.956703
江苏省苏州市昆山市玉山镇民营路工厂宿舍,江苏省,苏州市,昆山市,31.408335,1,120.941246
江苏省苏州市昆山市中航城花园,江苏省,苏州市,昆山市,31.381832,2,121.025139
江苏省苏州市昆山市玉山镇开心公寓,江苏省,苏州市,昆山市,31.347994,1,120.948843
江苏省苏州市昆山市千灯镇华强阳光都城花园,江苏省,苏州市,昆山市,31.251709,1,121.048677
江苏省苏州市相城区元和街道朱巷社区,江苏省,苏州市,相城区,31.40815,-1,120.616982
江苏省苏州市相城区元和街道誉相庭,江苏省,苏州市,相城区,31.35853,-1,120.64254
江苏省苏州市相城区黄埭镇潘阳新村,江苏省,苏州市,相城区,31.440552,-1,120.54892
江苏省苏州市相城区元和街道富豪商业一街,江苏省,苏州市,相城区,31.367584,1,120.621483
江苏省苏州市相城区元和街道金御华府,江苏省,苏州市,相城区,31.3855,1,120.607071
江苏省苏州市高新区鸿文雅苑,江苏省,苏州市,高新区,31.36088,1,120.51429
江苏省苏州市高新区狮山路汇豪国际,江苏省,苏州市,高新区,31.294485,1,120.567062
江苏省苏州市张家港市杨舍镇东莱新村,江苏省,苏州市,张家港市,31.88941,1,120.609749
江苏省苏州市张家港市杨舍镇东莱徐丰社区,江苏省,苏州市,张家港市,31.88356,1,120.606239
江苏省淮安市涟水县涟城街道城东居委会,江苏省,淮安市,涟水县,33.739799,1,119.313927
江苏省淮安市淮安区书香门第小区,江苏省,淮安市,淮安区,33.535072,1,119.154434
江苏省淮安市淮安区如意里小区,江苏省,淮安市,淮安区,33.511131,1,119.165138
江苏省淮安市淮安区文化馆小区,江苏省,淮安市,淮安区,33.50306,1,119.14108
江苏省淮安市淮安区河下街道河北村,江苏省,淮安市,淮安区,33.54335,1,119.133659
江苏省淮安市淮安区河下街道红桥村,江苏省,淮安市,淮安区,33.544651,4,119.153214
江苏省淮安市淮安区淮上人家小区,江苏省,淮安市,淮安区,33.523041,1,119.163429
江苏省淮安市淮安区盛世豪庭小区,江苏省,淮安市,淮安区,33.521381,1,119.158051
江苏省淮安市淮安区石塘镇城南1号,江苏省,淮安市,淮安区,33.51778,3,119.235352
江苏省淮安市淮安区石塘镇靖大庄居委会,江苏省,淮安市,淮安区,33.45702,1,119.227119
江苏省淮安市淮安区石塘镇鹅钱村,江苏省,淮安市,淮安区,33.486309,3,119.202721
江苏省淮安市淮安区蓝惠首府小区,江苏省,淮安市,淮安区,33.536461,1,119.129349
江苏省淮安市淮安区锦绣江南小区,江苏省,淮安市,淮安区,33.52935,2,119.1511
江苏省淮安市淮安区苏嘴镇大单村,江苏省,淮安市,淮安区,33.636238,1,119.426781
江苏省淮安市淮安区锦绣山阳小区,江苏省,淮安市,淮安区,33.497311,1,119.153328
江苏省淮安市淮安区香溢花城,江苏省,淮安市,淮安区,33.523931,1,119.159552
江苏省淮安市淮安区漕运镇盛庄村,江苏省,淮安市,淮安区,33.42476,1,119.178339
江苏省淮安市淮安区天恒王府小区,江苏省,淮安市,淮安区,33.52578,1,119.147911
江苏省淮安市淮安区淮城街道城南新村,江苏省,淮安市,淮安区,33.489029,1,119.143669
江苏省淮安市淮安区白马湖农场二分场,江苏省,淮安市,淮安区,33.37166,2,119.110682
江苏省淮安市淮安区银河公馆,江苏省,淮安市,淮安区,33.527328,1,119.12664
江苏省淮安市淮安区漕运镇林集派出所附近,江苏省,淮安市,淮安区,33.367602,1,119.138121
江苏省淮安市淮安区漕运镇码头湾浴场附近,江苏省,淮安市,淮安区,33.368661,1,119.13701
江苏省淮安市淮安区博里镇扁担城村,江苏省,淮安市,淮安区,33.548801,2,119.4497
江苏省淮安市淮安区山阳大道43-1号,江苏省,淮安市,淮安区,33.544782,1,119.178201
江苏省淮安市淮安区荷湖星城小区,江苏省,淮安市,淮安区,33.520433,1,119.153193
江苏省淮安市淮阴区三树镇周集村,江苏省,淮安市,淮阴区,33.638512,1,118.814713
江苏省淮安市淮阴区富豪花园A区,江苏省,淮安市,淮阴区,33.62141,1,119.011589
江苏省淮安市淮阴区淮高镇玉尧村,江苏省,淮安市,淮阴区,33.779831,1,119.075912
江苏省淮安市清江浦区人民北路19号干休所,江苏省,淮安市,清江浦区,33.59476,1,119.02179
江苏省淮安市清江浦区亿力未来城小区,江苏省,淮安市,清江浦区,33.585129,1,119.054512
江苏省淮安市清江浦区洪福小区,江苏省,淮安市,清江浦区,33.606411,1,119.074051
江苏省淮安市清江浦区盛世名门小区,江苏省,淮安市,清江浦区,33.578308,1,119.056213
江苏省淮安市清江浦区郦城国际小区,江苏省,淮安市,清江浦区,33.59045,2,119.05175
江苏省淮安市生态文旅区中南世纪锦城,江苏省,淮安市,生态文旅区,33.5383,1,119.119652
江苏省淮安市生态文旅区徐杨小区二期,江苏省,淮安市,生态文旅区,33.569149,2,119.15876
江苏省淮安市金湖县建设路2号,江苏省,淮安市,金湖县,33.02291,1,119.01333
江苏省淮安市金湖县黎城街道桓裕广场,江苏省,淮安市,金湖县,33.019001,1,119.017014
江苏省淮安市经济技术开发区东方凯旋城小区,江苏省,淮安市,经济技术开发区,33.58297,1,119.091812
江苏省淮安市淮安生态文旅区板闸家苑小区,江苏省,淮安市,淮安生态文旅区,33.535581,1,119.114716
江苏省淮安市淮安生态文旅区绿地世纪城小区,江苏省,淮安市,淮安生态文旅区,33.557475,1,119.104811
江苏省南京市建邺区保利香槟国际,江苏省,南京市,建邺区,31.982981,-1,118.717278
江苏省南京市建邺区水西门大街356号小区,江苏省,南京市,建邺区,32.03472,-1,118.74989
江苏省南京市建邺区爱达花园紫藤园,江苏省,南京市,建邺区,32.01635,-1,118.762253
江苏省南京市建邺区仁恒江湾城,江苏省,南京市,建邺区,31.999941,-1,118.711571
江苏省南京市建邺区洲岛家园,江苏省,南京市,建邺区,32.02359,-1,118.695953
江苏省南京市建邺区莱蒙水榭春天,江苏省,南京市,建邺区,32.022541,-1,118.7267
江苏省南京市栖霞区幕府山庄,江苏省,南京市,栖霞区,32.123573,-1,118.817444
江苏省南京市栖霞区弘阳燕江府,江苏省,南京市,栖霞区,32.138081,-1,118.827637
江苏省南京市栖霞区朗诗保利麓院小区,江苏省,南京市,栖霞区,32.087502,-1,118.930023
江苏省南京市栖霞区太平村胜利一村,江苏省,南京市,栖霞区,32.135109,-1,118.820732
江苏省南京市江北新区华侨城,江苏省,南京市,江北新区,32.129045,-1,118.727151
江苏省南京市江北新区新华七村,江苏省,南京市,江北新区,32.232231,-1,118.772415
江苏省南京市江北新区江岸水城,江苏省,南京市,江北新区,32.155441,-1,118.74057
江苏省南京市江北新区海德北岸,江苏省,南京市,江北新区,32.122711,-1,118.733253
江苏省南京市江宁区世纪东山,江苏省,南京市,江宁区,31.959921,-1,118.86879
江苏省南京市江宁区楚襄园,江苏省,南京市,江宁区,31.90946,-1,118.782387
江苏省南京市江宁区润麒路36号,江苏省,南京市,江宁区,31.98713,-1,118.86848
江苏省南京市江宁区爱涛翠湖花园,江苏省,南京市,江宁区,31.919067,-1,118.793526
江苏省南京市江宁区翠屏国际城水杉苑,江苏省,南京市,江宁区,31.936115,-1,118.785332
江苏省南京市江宁区锦绣花园,江苏省,南京市,江宁区,32.05566,-1,118.933197
江苏省南京市江宁区武夷名仕园,江苏省,南京市,江宁区,31.88085,-1,118.893417
江苏省南京市溧水区卧龙湖小镇,江苏省,南京市,溧水区,31.719515,-1,119.052834
江苏省南京市玄武区仙居雅苑,江苏省,南京市,玄武区,32.092999,-1,118.89727
江苏省南京市玄武区孝陵卫21号院,江苏省,南京市,玄武区,32.035641,-1,118.863647
江苏省南京市玄武区锁金六村,江苏省,南京市,玄武区,32.069603,-1,118.818893
江苏省南京市雨花台区莱蒙水榭阳光,江苏省,南京市,雨花台区,31.94784,-1,118.752701
江苏省南京市雨花台区长发诸公,江苏省,南京市,雨花台区,31.994631,-1,118.777512
江苏省南京市雨花台区柏悦澜庭,江苏省,南京市,雨花台区,31.989161,-1,118.754272
江苏省南京市高淳区穆家庄,江苏省,南京市,高淳区,31.39221,-1,119.069054
江苏省南京市鼓楼区天玺国际,江苏省,南京市,鼓楼区,32.04303,-1,118.729538
江苏省南京市鼓楼区安乐村,江苏省,南京市,鼓楼区,32.093342,-1,118.763023
江苏省南京市鼓楼区清河新寓二村,江苏省,南京市,鼓楼区,32.042068,-1,118.7295
江苏省南京市鼓楼区金舟花园,江苏省,南京市,鼓楼区,32.051708,-1,118.737907
江苏省南京市鼓楼区金陵小区宝象花园,江苏省,南京市,鼓楼区,32.106098,-1,118.759552
江苏省南京市鼓楼区新金贸花园,江苏省,南京市,鼓楼区,32.08213,-1,118.779213
江苏省南京市六合区林安新苑,江苏省,南京市,六合区,32.512329,-1,118.693649
江苏省南京市浦口区东方熙龙山院,江苏省,南京市,浦口区,32.08279,-1,118.628609
江苏省无锡市宜兴市周铁镇章茂村,江苏省,无锡市,宜兴市,31.47291,-1,119.990921
江苏省无锡市宜兴市宜城街道阳光花苑,江苏省,无锡市,宜兴市,31.36371,-1,119.835915
江苏省无锡市惠山区前洲街道星海康嘉园,江苏省,无锡市,惠山区,31.6901,-1,120.210861
江苏省无锡市惠山区钱桥街道振兴路,江苏省,无锡市,惠山区,31.59828,-1,120.226433
江苏省无锡市惠山区钱桥街道钱桥北街,江苏省,无锡市,惠山区,31.605209,-1,120.236031
江苏省无锡市惠山区长安街道理想城市,江苏省,无锡市,惠山区,31.660229,-1,120.321548
江苏省无锡市惠山区长安街道奥林匹克花园,江苏省,无锡市,惠山区,31.678671,-1,120.312149
江苏省无锡市惠山区长安街道怡和花园,江苏省,无锡市,惠山区,31.672301,-1,120.34744
江苏省无锡市惠山区钱桥街道百乐和园二期,江苏省,无锡市,惠山区,31.609238,1,120.238403
江苏省无锡市惠山区长安街道怡和家园,江苏省,无锡市,惠山区,31.672239,1,120.347252
江苏省无锡市惠山区钱桥街道北街东弄,江苏省,无锡市,惠山区,31.602313,1,120.236722
江苏省无锡市新吴区新安街道龙湖滟澜山小区,江苏省,无锡市,新吴区,31.47007,1,120.363701
江苏省无锡市新吴区旺庄街道春潮花园三期,江苏省,无锡市,新吴区,31.555799,1,120.36972
江苏省无锡市江阴市澄江街道丽都城市花园,江苏省,无锡市,江阴市,31.90387,-1,120.300163
江苏省无锡市江阴市申港街道崇文路,江苏省,无锡市,江阴市,31.89226,-1,120.14315
江苏省无锡市江阴市城东街道双牌一村,江苏省,无锡市,江阴市,31.917758,-1,120.316794
江苏省无锡市滨湖区河垺街道万达广场C区,江苏省,无锡市,滨湖区,31.56007,-1,120.26463
江苏省无锡市滨湖区蠡湖大道桔园公寓,江苏省,无锡市,滨湖区,31.490656,-1,120.271667
江苏省无锡市滨湖区雪浪街道南苑新村,江苏省,无锡市,滨湖区,31.433168,-1,120.270775
江苏省无锡市滨湖区蠡湖街道蠡湖国际公寓,江苏省,无锡市,滨湖区,31.535931,1,120.280991
江苏省无锡市锡山区东亭街道中大诺卡小镇,江苏省,无锡市,锡山区,31.59804,-1,120.34436
江苏省无锡市锡山区东亭街道春合苑,江苏省,无锡市,锡山区,31.57794,1,120.359863
江苏省无锡市锡山区东亭街道首创隽府,江苏省,无锡市,锡山区,31.595249,1,120.367348
江苏省无锡市锡山区安镇街道电信局宿舍,江苏省,无锡市,锡山区,31.609051,-1,120.474334
江苏省无锡市锡山区安镇街道豪景东苑,江苏省,无锡市,锡山区,31.612581,-1,120.474167
江苏省无锡市锡山区羊尖镇廊下花苑,江苏省,无锡市,锡山区,31.60668,-1,120.518288
江苏省无锡市锡山区羊尖镇廊下新村,江苏省,无锡市,锡山区,31.610202,-1,120.520521
江苏省锡山区东亭街道鸿发家园,江苏省,无锡市,锡山区,31.59034,1,120.351791
江苏省无锡市梁溪区崇安寺街道进士坊巷东河头巷,江苏省,无锡市,梁溪区,31.573413,1,120.307312
江苏省无锡市梁溪区广益街道广益佳苑,江苏省,无锡市,梁溪区,31.596786,1,120.334229
江西省九江市修水县义宁镇,江西省,九江市,修水县,29.003679,2,114.533722
江西省九江市修水县大桥镇,江西省,九江市,修水县,28.953791,1,114.110672
江西省九江市修水县大桥镇十里街道,江西省,九江市,修水县,29.566196,1,116.02805
江西省九江市修水县水源乡,江西省,九江市,修水县,28.99876,1,114.03801
江西省九江市修水县太阳升镇农科所幸福村,江西省,九江市,修水县,29.168739,1,114.681808
江西省九江市修水县义宁镇帝王国际小区,江西省,九江市,修水县,29.02737,2,114.548103
江西省九江市修水县义宁镇百合新城小区,江西省,九江市,修水县,29.027953,1,114.55039
江西省九江市八里湖新区八里湖街道,江西省,九江市,八里湖新区,29.666878,1,115.966419
江西省九江市八里湖新区九龙新城,江西省,九江市,八里湖新区,29.658791,1,115.950287
江西省九江市八里湖新区八里湖安置小区,江西省,九江市,八里湖新区,29.67009,1,115.957527
江西省九江市八里湖新区杭州路民强99号苑,江西省,九江市,八里湖新区,29.697373,1,115.966846
江西省九江市共青城市茶山街道,江西省,九江市,共青城市,29.23625,1,115.801712
江西省九江市共青城市泽泉乡长塘村,江西省,九江市,共青城市,25.824538,1,114.929631
江西省九江市彭泽县马当镇,江西省,九江市,彭泽县,29.985149,1,116.657249
江西省九江市彭泽县龙城镇,江西省,九江市,彭泽县,29.896139,2,116.548782
江西省九江市彭泽县马当镇湖西村,江西省,九江市,彭泽县,30.033772,2,116.733659
江西省九江市德安县车桥镇,江西省,九江市,德安县,29.356279,1,115.465569
江西省九江市德安县河东乡人民财产保险公司家属楼,江西省,九江市,德安县,29.336461,2,115.770708
江西省九江市柴桑区涌泉乡,江西省,九江市,柴桑区,29.612499,1,115.677567
江西省九江市柴桑区新塘乡前进村,江西省,九江市,柴桑区,29.60129,1,115.733521
江西省九江市武宁县鲁溪镇,江西省,九江市,武宁县,29.432949,1,115.23835
江西省九江市武宁县大洞乡彭坪村,江西省,九江市,武宁县,29.490203,1,114.908002
江西省九江市永修县永丰垦殖场,江西省,九江市,永修县,28.99135,1,115.800598
江西省九江市永修县涂埠镇,江西省,九江市,永修县,29.039671,1,115.82357
江西省九江市永修县涂埠镇老城林兴小区,江西省,九江市,永修县,29.041666,3,115.824013
江西省九江市永修县九合乡新华村,江西省,九江市,永修县,29.09881,1,115.884499
江西省九江市永修县立新乡杨春村,江西省,九江市,永修县,29.01722,1,115.750519
江西省九江市永修县涂埠镇自来水公司旁九合教师集资房,江西省,九江市,永修县,29.028125,1,115.812954
江西省九江市浔阳区甘棠街道,江西省,九江市,浔阳区,29.730921,4,116.000732
江西省九江市浔阳区白水湖街道,江西省,九江市,浔阳区,29.72724,5,116.012993
江西省九江市浔阳区金鸡坡街道,江西省,九江市,浔阳区,29.74906,1,116.05323
江西省九江市浔阳区白水湖街道御江一品,江西省,九江市,浔阳区,29.731501,2,116.008293
江西省九江市浔阳区甘棠街道中辉凯旋城,江西省,九江市,浔阳区,29.71818,1,116.009079
江西省九江市浔阳区白水湖街道景馨小区,江西省,九江市,浔阳区,29.71591,1,116.007278
江西省九江市浔阳区白水湖街道满庭春,江西省,九江市,浔阳区,29.729264,1,116.009527
江西省九江市浔阳区人民路街道老马渡地质队社区,江西省,九江市,浔阳区,29.713678,1,115.981754
江西省九江市湖口县城山镇,江西省,九江市,湖口县,29.598471,2,116.262299
江西省九江市湖口县武山镇,江西省,九江市,湖口县,29.58161,1,116.337448
江西省九江市湖口县舜德乡,江西省,九江市,湖口县,29.578199,3,116.23436
江西省九江市湖口县双钟镇洋港安置小区,江西省,九江市,湖口县,29.742599,2,116.236061
江西省九江市湖口县双钟镇磨具厂宿舍,江西省,九江市,湖口县,29.73331,1,116.234554
江西省九江市湖口县城山镇大塘村,江西省,九江市,湖口县,29.59878,1,116.262062
江西省九江市湖口县武山镇长岭村,江西省,九江市,湖口县,29.57452,1,116.339912
江西省九江市湖口县舜德乡舜德村,江西省,九江市,湖口县,29.578274,1,116.233826
江西省九江市湖口县武山镇莲凤村,江西省,九江市,湖口县,29.56218,1,116.313492
江西省九江市湖口县城山镇横山村,江西省,九江市,湖口县,28.511492,1,117.923631
江西省九江市濂溪区五里街道,江西省,九江市,濂溪区,29.711599,1,116.014664
江西省九江市濂溪区十里街道,江西省,九江市,濂溪区,29.668625,2,115.989311
江西省九江市濂溪区姑塘镇,江西省,九江市,濂溪区,29.623381,1,116.120644
江西省九江市濂溪区新港镇,江西省,九江市,濂溪区,29.742689,2,116.11084
江西省九江市濂溪区莲花镇,江西省,九江市,濂溪区,29.638241,1,115.984779
江西省九江市濂溪区五里街道怡居苑,江西省,九江市,濂溪区,29.70038,1,116.033768
